station,station_name,lon,lat,elev,variable,valid_months,start,end
3016124,STETTLER_NORTH,-112.6,52.35,795,tas,1178,1918-09-01,2021-12-01
7016902,STE_BEATRIX,-73.6,46.2,198,tas,495,1974-11-01,2021-11-01
5062921,THOMPSON,-97.87,55.8,224,tas,655,1967-04-01,2021-12-01
8502592,MARY_S_HARBOUR,-55.85,52.3,11,tas,1509,1884-04-01,2021-12-01
6135583,NEW_GLASGOW,-81.63,42.52,198,tas,765,1957-07-01,2021-12-01
1054929,MASSET_A,-132.13,54.03,6,tas,954,1900-01-01,2021-12-01
4064149,LA_RONGE,-105.27,55.15,379,tas,873,1923-09-01,2021-12-01
1068134,TERRACE,-128.58,54.47,217,tas,1276,1912-10-01,2021-12-01
1022250,CUMBERLAND,-125.03,49.62,159,tas,629,1922-05-01,1977-06-01
1125079,MERRITT,-120.8,50.12,609,tas,666,1962-05-01,2021-01-01
3033890,LETHBRIDGE,-112.77,49.7,910,tas,1376,1902-01-01,2021-12-01
5010490,BRANDON,-99.95,49.9,409,tas,1579,1890-01-01,2021-12-01
4022328,EASTLEIGH,-106.18,50.28,709,tas,554,1958-09-01,2007-11-01
5011241,HAMIOTA,-100.6,50.18,520,tas,866,1914-11-01,2002-06-01
8403389,ST_ANTHONY,-56.07,51.4,33,tas,786,1946-06-01,2021-12-01
5031320,INDIAN_BAY,-95.2,49.62,327,tas,1270,1915-04-01,2021-12-01
5020040,ALTONA,-97.55,49.1,248,tas,658,1949-04-01,2008-07-01
6158875,TRENTON,-77.53,44.12,86,tas,995,1935-01-01,2021-12-01
6113329,WALKERTON,-81.0,44.12,270,tas,1092,1915-07-01,2008-09-01
7022000,DISRAELI,-71.32,45.92,350,tas,848,1911-01-01,1991-05-01
2400602,CAMBRIDGE_BAY,-105.13,69.1,19,tas,961,1940-01-01,2021-12-01
3062696,FORT_MCMURRAY,-111.22,56.65,369,tas,1259,1916-01-01,2021-12-01
7028200,SOREL,-73.12,46.03,15,tas,1242,1914-06-01,2021-11-01
8205000,SALMON_HOLE,-64.03,44.93,84,tas,829,1938-10-01,2013-04-01
7103539,KUUJJUARAPIK,-77.57,55.37,30,tas,1045,1925-10-01,2021-12-01
4083324,HUDSON_BAY,-102.32,52.82,358,tas,938,1943-03-01,2021-12-01
7017080,ST_COME,-73.75,46.28,244,tas,760,1950-12-01,2018-11-01
1108380,VANCOUVER,-123.18,49.18,2,tas,1510,1896-02-01,2021-12-01
7035160,MONT_LAURIER,-75.55,46.57,244,tas,1032,1920-07-01,2014-06-01
6158410,TORONTO_BUTTONVILLE,-79.37,43.87,198,tas,530,1974-07-01,2019-01-01
3016GF0,VEGREVILLE,-112.1,53.5,639,tas,801,1940-04-01,2021-12-01
7028442,THETFORD_MINES,-71.27,46.05,430,tas,1150,1922-02-01,2021-12-01
7070454,BARRAGE_GOUIN,-74.1,48.35,404,tas,779,1914-03-01,1982-12-01
5031A10,GRAND_RAPIDS,-99.27,53.18,223,tas,706,1960-07-01,2021-12-01
6133362,HARROW,-82.9,42.03,191,tas,1239,1917-04-01,2021-12-01
8401502,DEER_LAKE,-57.4,49.22,22,tas,1053,1933-03-01,2021-12-01
5061022,GILLAM,-94.72,56.35,145,tas,870,1943-03-01,2021-12-01
3056214,WATERTON_PARK_GATE,-113.82,49.13,1289,tas,571,1966-06-01,2021-12-01
1021960,CORTES_ISLAND,-124.95,50.07,15,tas,762,1947-03-01,2019-02-01
4032322,KLINTONEL,-108.98,49.43,1080,tas,1287,1910-05-01,2021-12-01
8502799,NAIN,-61.68,56.55,8,tas,430,1984-09-01,2021-12-01
8204402,PARRSBORO,-64.35,45.42,31,tas,1420,1897-02-01,2021-12-01
8400413,BAY_D_ESPOIR,-55.8,47.98,23,tas,547,1967-11-01,2019-11-01
4040600,BIGGAR,-107.98,52.07,671,tas,994,1917-04-01,2005-03-01
6040325,ARMSTRONG,-88.9,50.3,323,tas,661,1953-01-01,2021-12-01
4056121,PILGER,-105.15,52.42,552,tas,1194,1911-10-01,2021-12-01
4020020,ABBEY,-108.78,50.7,695,tas,526,1956-05-01,2008-01-01
8204800,ST_MARGARET_S_BAY,-63.9,44.7,17,tas,1139,1922-04-01,2021-05-01
1017230,SHAWNIGAN_LAKE,-123.63,48.65,159,tas,1300,1913-04-01,2021-12-01
3032642,FOREMOST,-111.48,49.48,881,tas,969,1915-08-01,2021-12-01
7066686,ROBERVAL,-72.27,48.52,179,tas,1162,1914-01-01,2021-12-01
6110607,BEATRICE,-79.4,45.13,297,tas,1714,1878-01-01,2021-12-01
7014160,JOLIETTE,-73.43,45.82,21,tas,1234,1914-01-01,2021-12-01
1065670,OCEAN_FALLS,-127.68,52.35,5,tas,726,1924-01-01,1986-11-01
8200604,METEGHAN_RIVER,-66.35,44.28,16,tas,755,1937-03-01,2021-12-01
119BLM0,DEASE_LAKE,-130.03,58.43,801,tas,915,1944-09-01,2021-12-01
6139449,WELLAND,-79.33,42.97,178,tas,1684,1872-10-01,2021-12-01
8501106,CARTWRIGHT,-57.05,53.68,14,tas,1030,1934-11-01,2021-12-01
5062040,NORWAY_HOUSE,-97.85,53.97,224,tas,1106,1897-01-01,2021-12-01
1036240,PORT_ALICE,-127.45,50.38,21,tas,690,1956-01-01,2016-04-01
1046392,POWELL_RIVER,-124.5,49.83,125,tas,1123,1924-01-01,2021-12-01
6158731,TORONTO_INTL_A,-79.63,43.68,173,tas,1006,1937-11-01,2021-12-01
8103500,NEPISIGUIT_FALLS,-65.78,47.4,106,tas,957,1922-07-01,2006-02-01
7057720,STEROSE_DEGELIS,-68.63,47.57,151,tas,801,1932-11-01,2004-04-01
4047240,SCOTT,-108.83,52.37,660,tas,1322,1911-05-01,2021-12-01
2202810,NORMAN_WELLS,-126.75,65.28,94,tas,937,1943-05-01,2021-12-01
5022125,PILOT_MOUND,-98.9,49.18,470,tas,830,1938-04-01,2021-12-01
4019041,YELLOW_GRASS,-104.18,49.82,578,tas,1270,1911-08-01,2021-12-01
5013117,WASAGAMING,-99.95,50.65,627,tas,621,1966-03-01,2021-12-01
504K80K,SWAN_RIVER,-101.23,52.12,335,tas,711,1959-04-01,2021-12-01
5040681,DAUPHIN,-100.05,51.1,305,tas,1355,1903-01-01,2021-12-01
7051200,CAUSAPSCAL,-67.23,48.37,168,tas,1183,1913-11-01,2021-07-01
6137730,SIMCOE,-80.27,42.85,241,tas,760,1920-07-01,1986-12-01
6025205,MINE_CENTRE,-92.62,48.77,361,tas,1244,1915-02-01,2021-12-01
4067655,WHITESAND-SOUTHEND,-103.28,56.33,344,tas,983,1938-01-01,2021-12-01
1107680,STAVE_FALLS,-122.37,49.23,110,tas,1031,1909-10-01,2004-08-01
3010237,ANDREW,-112.28,53.92,625,tas,546,1974-11-01,2021-12-01
4015440,MUENSTER,-105.0,52.33,580,tas,1352,1904-06-01,2021-12-01
8100885,CHARLO_,-66.33,47.98,42,tas,650,1966-12-01,2021-12-01
2203058,PAULATUK,-124.08,69.35,6,tas,418,1985-05-01,2021-12-01
1038332,UCLUELET_KENNEDY_CAM,-125.53,48.95,40,tas,394,1988-09-01,2021-12-01
7017585,ST_NARCISSE,-72.43,46.53,46,tas,556,1973-09-01,2021-11-01
3031094,CALGARY,-114.0,51.12,1082,tas,1640,1885-01-01,2021-12-01
4015360,MOOSOMIN,-101.67,50.13,576,tas,681,1941-04-01,2000-09-01
1143900,KASLO,-116.92,49.92,600,tas,1256,1912-03-01,2018-09-01
6119511,WILDER_LAKE,-80.77,44.15,390,tas,694,1947-11-01,2009-01-01
3062660,FORT_ASSINIBOINE,-114.77,54.42,676,tas,591,1970-01-01,2021-12-01
4046884,ROSETOWN,-107.92,51.57,586,tas,993,1937-04-01,2021-12-01
2101204,WATSON_LAKE,-128.83,60.12,683,tas,991,1938-10-01,2021-12-01
7060400,BAGOTVILLE,-71.0,48.33,159,tas,1575,1880-11-01,2021-12-01
7050145,AMQUI,-67.43,48.47,166,tas,662,1957-03-01,2019-07-01
1096453,PRINCE_GEORGE,-122.67,53.88,680,tas,1302,1912-08-01,2021-12-01
1125760,OLIVER,-119.57,49.17,315,tas,828,1938-06-01,2008-10-01
1025C70,NANAIMO_DEPARTURE_BA,-123.95,49.22,8,tas,833,1913-01-01,1992-11-01
6115529,MUSKOKA,-79.3,44.97,282,tas,825,1953-01-01,2021-12-01
7056240,PRICE,-68.13,48.6,73,tas,625,1931-09-01,1985-01-01
8100505,BATHURST,-65.73,47.63,59,tas,1145,1922-01-01,2018-10-01
8403505,ST_JOHN_S,-52.75,47.62,141,tas,1699,1874-01-01,2021-12-01
6100970,BROCKVILLE,-75.75,44.63,120,tas,1258,1915-07-01,2021-12-01
8203600,MOUNT_UNIACKE,-63.83,44.9,159,tas,935,1920-07-01,2003-07-01
6036907,RAWSON_LAKE,-93.73,49.67,435,tas,590,1969-06-01,2021-12-01
7022320,FARNHAM,-72.9,45.3,68,tas,1078,1917-06-01,2021-11-01
4064620,LOON_LAKE,-109.13,54.02,546,tas,868,1930-01-01,2021-12-01
7027283,BEAUCEVILLE,-70.7,46.15,168,tas,1266,1913-08-01,2021-11-01
4022359,ELBOW,-106.58,51.13,595,tas,876,1933-04-01,2021-12-01
1086082,PEMBERTON_AIRPORT_CS,-122.73,50.3,204,tas,1205,1912-08-01,2021-12-01
4014040,KIPLING,-102.73,50.2,671,tas,848,1950-04-01,2021-12-01
1016995,SALTSPRING_,-123.55,48.88,46,tas,1321,1909-11-01,2021-11-01
4063605,ISLAND_FALLS,-102.35,55.53,297,tas,1088,1929-09-01,2021-12-01
3015523,ROCKY_MTN_HOUSE,-114.92,52.42,988,tas,1192,1915-08-01,2021-12-01
1067748,STEWART,-129.98,55.93,7,tas,1235,1910-09-01,2021-12-01
3017282,WETASKIWIN,-113.45,52.98,774,tas,1324,1902-11-01,2021-12-01
2400305,ALERT,-62.33,82.5,65,tas,853,1950-07-01,2021-12-01
7027259,ST_FLAVIEN,-71.57,46.48,137,tas,625,1963-01-01,2016-08-01
7025442,NICOLET,-72.65,46.23,8,tas,1241,1913-11-01,2021-12-01
8201390,TRURO,-63.47,45.42,38,tas,1708,1873-01-01,2021-12-01
2203914,TUKTOYAKTUK,-133.02,69.43,5,tas,720,1957-06-01,2021-12-01
7018001,SHAWINIGAN,-72.73,46.57,110,tas,1300,1902-07-01,2021-12-01
6163171,HALIBURTON,-78.53,45.03,330,tas,1548,1888-06-01,2021-12-01
7050762,BIC,-68.67,48.4,23,tas,688,1921-05-01,1985-01-01
2100701,MAYO,-135.87,63.62,504,tas,1138,1924-10-01,2021-12-01
8401251,COLINET,-53.52,47.23,55,tas,641,1938-08-01,1996-09-01
1046391,POWELL_RIVER_A,-124.5,49.83,130,tas,733,1954-01-01,2021-12-01
1073615,HOUSTON,-126.67,54.4,610,tas,394,1988-09-01,2021-12-01
1130771,BEAVERDELL,-119.05,49.48,838,tas,707,1939-01-01,2006-09-01
6101874,CORNWALL,-74.75,45.02,64,tas,836,1950-11-01,2021-12-01
2101303,WHITEHORSE_A,-135.07,60.72,706,tas,935,1942-04-01,2021-12-01
6147188,KITCHENER,-80.47,43.35,328,tas,1250,1914-10-01,2021-12-01
1077501,SMITHERS,-127.18,54.82,518,tas,1191,1922-06-01,2021-12-01
50220M0,NINETTE,-99.65,49.42,419,tas,939,1911-12-01,1996-05-01
1026271,PORT_HARDY,-127.37,50.68,22,tas,932,1944-05-01,2021-12-01
7022800,GRANBY,-72.72,45.38,175,tas,777,1948-06-01,2021-11-01
7031315,CHARTERIS,-76.43,45.68,168,tas,442,1980-05-01,2021-11-01
2401030,DEWAR_LAKES,-71.17,68.65,527,tas,684,1958-02-01,2021-12-01
2300501,BAKER_LAKE,-96.0,64.32,51,tas,875,1946-02-01,2021-12-01
503B1ER,PINAWA,-96.07,50.18,268,tas,1270,1915-06-01,2021-12-01
3061201,CAMPSIE,-114.68,54.13,647,tas,1295,1912-09-01,2021-12-01
7080600,BELLETERRE,-78.7,47.38,322,tas,574,1951-09-01,2004-04-01
6057591,SAULT_STE_MARIE,-84.52,46.48,192,tas,885,1945-06-01,2021-12-01
6111792,COLLINGWOOD,-80.22,44.5,180,tas,1222,1881-08-01,2021-12-01
1114746,LYTTON,-121.58,50.22,225,tas,901,1944-08-01,2021-12-01
1088015,TATLAYOKO_LAKE,-124.4,51.67,875,tas,1083,1930-01-01,2021-12-01
1018621,VICTORIA,-123.43,48.65,20,tas,1480,1898-08-01,2021-12-01
6068145,SUDBURY,-80.8,46.63,348,tas,876,1947-09-01,2021-12-01
7050200,ANTICOSTI_SW_POINT,-63.55,49.4,7,tas,885,1880-05-01,1954-10-01
7018563,TROIS_RIVIERES,-72.68,46.37,62,tas,993,1934-11-01,2021-12-01
1123750,JOE_RICH_CREEK,-119.13,49.85,875,tas,704,1948-06-01,2008-12-01
6012199,EAR_FALLS,-93.22,50.63,363,tas,929,1928-10-01,2021-12-01
2100301,CARMACKS,-136.2,62.12,543,tas,652,1963-08-01,2021-12-01
5012324,PORTAGE_SOUTHPORT,-98.28,49.9,273,tas,865,1941-07-01,2021-12-01
6104027,KEMPTVILLE,-75.63,45.0,99,tas,1065,1928-11-01,2021-12-01
5010641,CYPRESS_RIVER,-99.07,49.57,374,tas,867,1949-01-01,2021-12-01
6022474,FORT_FRANCES,-93.43,48.65,342,tas,1246,1917-01-01,2021-12-01
7020860,BROMPTONVILLE,-71.95,45.48,130,tas,672,1957-06-01,2021-11-01
3036682,VAUXHALL,-112.13,50.05,779,tas,1124,1913-10-01,2021-12-01
5052890,THE_PAS,-101.1,53.97,274,tas,1326,1910-06-01,2021-12-01
2503648,SACHS_HARBOUR,-125.25,72.0,88,tas,746,1955-11-01,2021-12-01
8105210,SUSSEX,-65.53,45.75,47,tas,1410,1897-10-01,2021-12-01
3053250,HIGH_RIVER,-114.37,50.55,1580,tas,1151,1902-08-01,2011-09-01
5021920,MORRIS,-97.37,49.35,235,tas,798,1915-09-01,1987-10-01
7027302,ST_GUILLAUME,-72.77,45.88,44,tas,588,1963-01-01,2015-10-01
1026639,QUINSAM_RIVER,-125.3,50.02,46,tas,729,1958-07-01,2021-12-01
1128553,VERNON_BELLA_VISTA,-119.32,50.27,427,tas,915,1919-12-01,2017-12-01
3032801,GLEICHEN,-112.93,50.93,907,tas,1355,1903-07-01,2021-12-01
8205092,SHEARWATER_A,-63.52,44.63,24,tas,821,1953-01-01,2021-12-01
6158355,TORONTO,-79.4,43.67,113,tas,2180,1840-03-01,2021-12-01
3025768,SCHULER,-110.08,50.3,800,tas,469,1981-11-01,2021-12-01
7040815,LOURDES_DE_BLANC_SA_,-57.18,51.45,37,tas,463,1982-08-01,2021-12-01
6106367,PEMBROKE_CLIMATE,-77.25,45.87,161,tas,1390,1866-02-01,2021-12-01
8101746,ALMA_(Fundy_Park),-64.95,45.6,43,tas,829,1950-02-01,2021-12-01
1092975,FORT_ST_JAMES,-124.28,54.45,688,tas,1514,1895-01-01,2021-12-01
8402958,PLUM_POINT,-56.88,51.07,6,tas,539,1972-07-01,2019-07-01
40318MN,CORONACH,-105.48,49.05,756,tas,709,1961-07-01,2021-12-01
8401405,DANIELS_HARBOUR,-57.58,50.23,19,tas,842,1946-11-01,2021-12-01
2403204,POND_INLET,-77.95,72.7,65,tas,848,1922-10-01,2021-12-01
7028123,SHERBROOKE,-71.68,45.43,241,tas,1138,1923-05-01,2021-12-01
4028038,SWIFT_CURRENT,-107.68,50.3,817,tas,1627,1885-12-01,2021-12-01
7091299,CHAPAIS,-74.98,49.82,381,tas,661,1962-05-01,2021-12-01
1158730,WASA,-115.63,49.8,970,tas,389,1983-07-01,2017-12-01
7038975,WRIGHT,-76.05,46.07,142,tas,626,1967-10-01,2021-11-01
5010240,BIRTLE,-101.05,50.43,522,tas,1006,1904-06-01,2000-06-01
7024920,MILAN,-71.12,45.58,482,tas,770,1949-10-01,2015-10-01
6135657,NIAGARA_FALLS,-79.05,43.13,175,tas,723,1942-07-01,2011-06-01
406QLD0,URANIUM_CITY,-108.48,59.57,318,tas,663,1953-01-01,2021-12-01
7024440,MAGOG,-72.12,45.27,274,tas,811,1949-11-01,2021-11-01
2301102,ENNADAI_LAKE,-100.88,61.13,353,tas,613,1949-10-01,2021-12-01
1192948,FORT_NELSON,-122.57,58.83,380,tas,1007,1937-09-01,2021-12-01
8402980,PORT_AUXBASQUES,-59.15,47.57,40,tas,1018,1909-02-01,2021-12-01
7022160,DRUMMONDVILLE,-72.48,45.88,82,tas,1211,1913-11-01,2018-10-01
2202102,FORT_SIMPSON,-121.23,61.77,168,tas,1397,1895-11-01,2021-12-01
7026612,RIVIERE_DES_PRAIRIE,-73.5,45.7,9,tas,557,1973-01-01,2021-11-01
1152850,FERNIE,-115.07,49.48,1001,tas,1252,1913-12-01,2021-12-01
7020567,BEAUSEJOUR,-71.17,46.67,107,tas,520,1975-08-01,2019-11-01
6032125,DRYDEN,-92.75,49.83,413,tas,1262,1914-01-01,2021-12-01
8104700,ST_GEORGE,-66.83,45.13,34,tas,705,1919-07-01,1981-06-01
7054096,LA_POCATIERE,-70.03,47.35,31,tas,1287,1913-01-01,2021-12-01
1106178,NEW_WESTMINSTER,-122.68,49.2,5,tas,1426,1874-09-01,2021-12-01
2302340,GJOA_HAVEN_CLIMATE,-95.85,68.63,42,tas,428,1984-08-01,2021-12-01
6127519,SARNIA,-82.3,43.0,181,tas,634,1968-01-01,2021-12-01
7031360,CHELSEA,-75.78,45.52,113,tas,1073,1927-09-01,2021-11-01
5012654,SHOAL_LAKE_CS,-100.6,50.45,561,tas,709,1962-06-01,2021-12-01
4021600,CODERRE,-106.37,50.13,685,tas,588,1948-04-01,2008-01-01
1125700,OKANAGAN_CENTRE,-119.45,50.05,370,tas,1072,1926-01-01,2021-12-01
1133300,GREENWOOD,-118.68,49.1,763,tas,759,1911-06-01,1990-08-01
6059407,WAWA,-84.78,47.97,288,tas,865,1940-03-01,2016-06-01
3010890,BROWNFIELD,-111.47,52.32,755,tas,608,1958-09-01,2009-06-01
3031322,CARDSTON,-113.28,49.2,1136,tas,1162,1918-08-01,2021-12-01
4012410,ESTEVAN,-102.97,49.22,581,tas,1242,1900-06-01,2021-12-01
7028680,VALLEYFIELD,-74.1,45.28,46,tas,694,1952-02-01,2016-10-01
5061375,ISLAND_LAKE_A,-94.65,53.85,235,tas,565,1970-12-01,2019-08-01
4061629,COLLINS_BAY,-103.72,58.18,490,tas,501,1972-09-01,2018-04-01
8203702,NAPPAN,-64.23,45.77,20,tas,1296,1913-10-01,2021-12-01
7027329,ST_HUBERT_MONT_,-73.42,45.52,27,tas,823,1953-01-01,2021-12-01
7113535,KUUJJUAQ,-68.42,58.08,40,tas,894,1947-03-01,2021-12-01
1064020,KEMANO,-127.95,53.57,66,tas,789,1951-08-01,2021-12-01
1108446,VANCOUVER_HARBOUR_CS,-123.12,49.3,3,tas,1195,1898-10-01,2021-12-01
7015730,OKA,-74.07,45.5,91,tas,921,1937-08-01,2021-11-01
8201601,DIGBY,-65.78,44.55,152,tas,920,1898-12-01,1997-05-01
7063560,LAC_BOUCHETTE,-72.17,48.22,358,tas,761,1949-08-01,2015-09-01
4068559,WASKESIU_LAKE,-106.07,53.92,569,tas,648,1966-01-01,2021-12-01
3055119,PEKISKO,-114.42,50.37,1415,tas,1221,1905-07-01,2021-12-01
3054843,NORDEGG,-116.03,52.5,1332,tas,669,1960-09-01,2021-12-01
7091410,CHIBOUGAMAU,-74.53,49.78,381,tas,1208,1885-01-01,2021-12-01
7027361,ST_HYACINTHE,-72.92,45.57,33,tas,967,1935-01-01,2021-11-01
7077570,ST_MICHEL_DES_SAIN,-73.92,46.68,351,tas,582,1966-11-01,2021-11-01
3031402,CARWAY,-113.38,49.0,1354,tas,1157,1914-08-01,2021-12-01
6124700,LUCKNOW,-81.5,43.95,290,tas,1260,1886-06-01,1993-12-01
2202402,HAY_RIVER,-115.78,60.83,164,tas,1497,1893-09-01,2021-12-01
7023075,HEMMINGFORD_FOUR,-73.72,45.07,61,tas,699,1960-07-01,2021-11-01
6136699,ST_CATHARINES,-79.22,43.25,79,tas,1097,1911-01-01,2021-12-01
5012960,VIRDEN,-100.95,49.83,445,tas,921,1890-10-01,2005-03-01
6134190,LEAMINGTON,-82.67,42.05,200,tas,1255,1916-03-01,2021-12-01
5061649,LYNN_LAKE,-101.07,56.85,354,tas,782,1952-04-01,2021-12-01
6142400,FERGUS_SHAND_DAM,-80.33,43.73,418,tas,971,1939-10-01,2021-12-01
6136335,PELEE_ISLAND,-82.68,41.75,175,tas,1006,1889-10-01,1987-08-01
8502400,HOPEDALE,-60.22,55.45,12,tas,781,1942-01-01,2021-12-01
7066820,ST_AMBROISE,-71.33,48.57,122,tas,760,1954-09-01,2021-11-01
4014156,LAST_MOUNTAIN_CS,-105.25,51.42,497,tas,542,1975-05-01,2021-12-01
810I001,GRAND_FALLS_,-67.83,47.15,245,tas,1039,1914-03-01,2017-02-01
2101310,WHITEHORSE,-135.1,60.73,707,tas,709,1959-02-01,2021-12-01
2401199,EUREKA,-85.93,79.98,10,tas,893,1947-05-01,2021-12-01
8400801,BURGEO,-57.62,47.62,11,tas,630,1966-11-01,2021-12-01
1145442,NELSON,-117.2,49.58,570,tas,1319,1904-01-01,2021-12-01
7053649,LAC_HUMQUI,-67.57,48.28,236,tas,580,1972-12-01,2021-11-01
10476F0,SQUAMISH,-123.17,49.78,54,tas,446,1983-04-01,2021-12-01
7075800,PARENT,-74.62,47.92,445,tas,720,1943-07-01,2021-12-01
6142803,GLEN_ALLAN,-80.72,43.68,400,tas,681,1958-08-01,2021-12-01
1140876,GRAND_FORKS,-118.23,49.02,519,tas,1292,1911-03-01,2021-12-01
250M001,MOULD_BAY,-119.35,76.23,2,tas,833,1948-05-01,2021-12-01
8400698,BUCHANS,-56.87,48.82,270,tas,752,1943-11-01,2011-06-01
1125766,OLIVER_STP,-119.55,49.18,297,tas,791,1955-01-01,2021-12-01
7098603,VAL_D_OR,-77.78,48.05,339,tas,832,1951-07-01,2021-12-01
6105978,OTTAWA,-75.72,45.38,79,tas,1581,1889-11-01,2021-12-01
7080468,TEMISCAMINGUE,-79.1,46.72,181,tas,1259,1910-04-01,2021-12-01
5022759,SPRAGUE,-95.6,49.02,329,tas,1261,1915-09-01,2021-12-01
4067799,STONY_RAPIDS,-105.83,59.25,244,tas,423,1986-07-01,2021-12-01
1168520,VAVENBY,-119.78,51.58,445,tas,1294,1913-04-01,2021-12-01
8403097,ROCKY_HARBOUR,-57.88,49.57,68,tas,488,1972-07-01,2013-12-01
7060080,ALBANEL,-72.45,48.88,152,tas,793,1922-06-01,1991-01-01
2402684,LONGSTAFF_BLUFF,-75.13,68.9,161,tas,559,1958-06-01,2021-12-01
8105603,WOODSTOCK,-67.55,46.15,154,tas,1149,1914-03-01,2021-12-01
1021480,CHATHAM_POINT,-125.45,50.33,23,tas,684,1958-07-01,2021-12-01
7016800,ST_ALBAN,-72.08,46.72,76,tas,846,1949-09-01,2021-11-01
501A7AR,MELITA,-100.98,49.28,446,tas,1002,1933-01-01,2021-12-01
1125852,OSOYOOS,-119.43,49.03,283,tas,738,1954-04-01,2021-12-01
4055079,MELFORT,-104.6,52.82,490,tas,1370,1901-10-01,2021-12-01
8100593,BUCTOUCHE,-64.77,46.43,36,tas,658,1965-10-01,2021-10-01
4021520,CHAPLIN,-106.65,50.47,672,tas,1172,1893-01-01,1995-09-01
2303405,RANKIN_INLET_A,-92.12,62.82,32,tas,489,1981-01-01,2021-12-01
2301002,CORAL_HARBOUR,-83.37,64.2,62,tas,896,1945-03-01,2021-12-01
7043960,LA_MALBAIE,-70.15,47.67,23,tas,904,1915-07-01,2004-04-01
3075041,PEACE_RIVER,-117.45,56.23,571,tas,1126,1907-10-01,2021-12-01
7024280,LENNOXVILLE,-71.82,45.37,181,tas,1264,1915-01-01,2021-12-01
2303094,KUGAARUK_CLIMATE,-89.8,68.53,16,tas,730,1957-08-01,2021-12-01
1126146,PENTICTON,-119.6,49.47,344,tas,1369,1907-04-01,2021-12-01
6014353,LANSDOWNE_HOUSE,-87.93,52.2,253,tas,899,1941-03-01,2021-12-01
112FN0M,PRINCETON,-120.52,49.47,697,tas,1506,1893-07-01,2021-12-01
7057567,SAINT_MICHEL,-70.88,46.87,69,tas,507,1978-09-01,2021-11-01
8401298,CORNER_BROOK,-57.92,48.93,152,tas,1025,1933-04-01,2021-12-01
2403602,RESOLUTION_ISLAND,-64.65,61.58,369,tas,773,1929-10-01,2021-12-01
7027520,ST_MALO_D_AUCKL_,-71.5,45.2,564,tas,830,1949-09-01,2021-11-01
3044232,MASINASIN,-111.65,49.13,948,tas,462,1981-09-01,2021-12-01
7037400,ST_JEROME,-74.05,45.8,170,tas,997,1932-05-01,2021-11-01
6034073,KENORA,-94.38,49.78,413,tas,1427,1899-09-01,2021-12-01
8206491,YARMOUTH,-66.08,43.83,36,tas,1690,1879-08-01,2021-12-01
6104142,KINGSTON,-76.6,44.22,93,tas,1620,1872-07-01,2021-12-01
3011240,CAMROSE,-112.82,53.05,739,tas,881,1946-03-01,2021-12-01
2202000,FORT_RESOLUTION,-113.68,61.18,160,tas,984,1911-08-01,2014-11-01
6041110,CAMERON_FALLS,-88.35,49.15,233,tas,1135,1924-06-01,2021-12-01
7067658,ST_PRIME,-72.42,48.62,122,tas,489,1980-11-01,2021-11-01
3031000,CALDWELL,-113.63,49.17,1286,tas,652,1932-04-01,1990-11-01
3033875,LETHBRIDGE_A,-112.8,49.63,929,tas,1002,1938-01-01,2021-12-01
3030838,BROOKS_AHRC,-111.9,50.58,755,tas,683,1912-04-01,1980-05-01
3072723,FORT_VERMILION,-116.03,58.38,289,tas,1189,1908-07-01,2021-12-01
5060520,BROCHET,-101.68,57.88,346,tas,584,1948-08-01,2009-09-01
6139148,VINELAND,-79.4,43.18,79,tas,1136,1924-09-01,2021-12-01
1036572,QUATSINO,-128.03,50.43,21,tas,1430,1895-06-01,2021-10-01
7065639,NORMANDIN,-72.55,48.85,137,tas,998,1936-07-01,2021-12-01
1123939,KELOWNA,-119.38,49.95,433,tas,1454,1899-03-01,2021-12-01
1176755,REVELSTOKE,-118.18,50.95,445,tas,1363,1898-05-01,2021-12-01
7027840,SCOTT,-71.08,46.5,145,tas,809,1950-11-01,2021-11-01
1171393,CARIBOO_LODGE,-119.47,52.72,1096,tas,1104,1914-01-01,2016-10-01
2400660,CAPE_HOOPER,-66.82,68.47,390,tas,684,1957-01-01,2021-12-01
6116257,PARRY_SOUND,-80.05,45.35,176,tas,1570,1875-11-01,2021-12-01
7034482,MANIWAKI,-76.0,46.27,200,tas,1221,1914-06-01,2021-12-01
8204193,UPPER_STEWIACKE,-63.05,45.23,24,tas,1247,1915-11-01,2021-12-01
3065997,SLAVE_LAKE,-114.78,55.3,583,tas,1060,1922-08-01,2021-12-01
6144478,LONDON,-81.15,43.03,278,tas,1659,1883-03-01,2021-12-01
2204200,YELLOWKNIFE_HYDRO,-114.25,62.67,159,tas,596,1943-01-01,2000-06-01
3035198,PINCHER_CREEK,-114.0,49.52,1190,tas,1437,1893-08-01,2021-12-01
1098941,WILLIAMS_LAKE,-122.05,52.18,940,tas,977,1939-01-01,2021-12-01
3025481,RED_DEER_A,-113.9,52.18,905,tas,981,1938-02-01,2019-12-01
5030080,ARBORG,-97.08,50.93,224,tas,655,1960-11-01,2016-06-01
8501900,GOOSE,-60.42,53.32,49,tas,961,1941-12-01,2021-12-01
4028060,SWIFT_CURRENT_CDA,-107.73,50.27,825,tas,754,1959-01-01,2021-12-01
1091174,BURNS_LAKE,-125.97,54.38,713,tas,771,1949-03-01,2021-12-01
3011887,CORONATION,-111.45,52.07,791,tas,1041,1924-03-01,2021-12-01
7022494,FORTIERVILLE,-72.05,46.48,53,tas,571,1973-01-01,2021-11-01
8201780,BADDECK,-60.65,45.92,28,tas,973,1935-06-01,2021-12-01
4013480,INDIAN_HEAD,-103.65,50.55,579,tas,1575,1889-09-01,2021-12-01
2201903,FORT_RELIANCE,-109.17,62.72,168,tas,798,1948-10-01,2021-12-01
4020286,ASSINIBOIA,-105.95,49.73,726,tas,960,1915-06-01,2021-12-01
1024638,LITTLE_QUALICUM_HATC,-124.52,49.35,30,tas,456,1981-01-01,2021-12-01
8200827,CHETICAMP,-60.95,46.65,44,tas,703,1956-02-01,2018-11-01
6016970,RED_LAKE,-93.8,51.07,386,tas,615,1965-01-01,2016-06-01
1148705,WARFIELD,-117.73,49.12,567,tas,1043,1928-06-01,2021-12-01
7027200,ST_EPHREM,-70.97,46.07,312,tas,911,1929-02-01,2021-09-01
3050778,BOW_VALLEY,-115.07,51.08,1298,tas,495,1967-05-01,2021-12-01
4027485,SHAUNAVON,-108.42,49.65,914,tas,1015,1915-06-01,2003-10-01
2403855,TALOYOAK_A,-93.58,69.55,27,tas,406,1984-09-01,2021-12-01
6136643,PORT_DOVER,-80.22,42.78,186,tas,1229,1875-07-01,1983-12-01
6033690,IGNACE,-91.65,49.42,447,tas,650,1914-01-01,1971-01-01
6124127,SOUTHAMPTON,-81.62,44.17,200,tas,1721,1873-11-01,2021-12-01
3025222,HILLSDOWN,-113.5,52.17,945,tas,916,1904-01-01,1981-04-01
1160483,ARMSTRONG,-119.22,50.5,505,tas,914,1913-03-01,1998-12-01
6071712,COCHRANE,-81.03,49.07,275,tas,933,1910-06-01,1993-04-01
8300301,CHARLOTTETOWN,-63.12,46.28,49,tas,1758,1872-11-01,2021-12-01
1113543,HOPE,-121.5,49.37,39,tas,1004,1936-10-01,2021-12-01
4011980,CUPAR,-104.27,50.85,556,tas,697,1955-11-01,2018-10-01
1054500,LANGARA,-133.05,54.25,43,tas,1021,1936-07-01,2021-12-01
2201500,FORT_GOOD_HOPE_2,-128.63,66.25,42,tas,683,1908-09-01,1966-12-01
3016841,VIKING,-111.73,53.18,711,tas,1011,1923-06-01,2021-12-01
3063686,LAC_LA_BICHE,-112.02,54.77,567,tas,681,1944-05-01,2021-12-01
6075379,MONTREAL_RIVER,-79.48,47.12,183,tas,660,1910-12-01,1967-10-01
6133047,GRIMSBY,-79.57,43.2,91,tas,711,1910-01-01,1985-08-01
2300904,KUGLUKTUK,-115.13,67.82,23,tas,1072,1930-10-01,2021-12-01
6106396,PETAWAWA,-77.32,45.95,130,tas,918,1931-06-01,2021-12-01
6159575,WOODBRIDGE,-79.6,43.78,164,tas,655,1948-10-01,2005-05-01
6155183,MILLGROVE,-79.97,43.32,255,tas,628,1951-03-01,2006-04-01
7052601,GASPE,-64.48,48.78,34,tas,1133,1916-01-01,2021-12-01
5012322,PORTAGE_LA_PRAIRIE,-98.32,49.98,261,tas,1113,1886-01-01,1996-06-01
6059475,WHITE_RIVER,-85.28,48.6,379,tas,1037,1888-12-01,1976-02-01
710S005,INUKJUAK,-78.08,58.47,26,tas,1115,1921-11-01,2021-12-01
1175122,MICA_DAM,-118.58,52.05,579,tas,699,1951-06-01,2021-12-01
1065010,MCINNES_ISLAND,-128.72,52.27,26,tas,764,1955-01-01,2021-12-01
1106180,PITT_POLDER,-122.62,49.28,5,tas,644,1954-01-01,2010-06-01
4011441,CEYLON,-104.65,49.38,753,tas,676,1940-04-01,2002-12-01
1100031,ABBOTSFORD A,-122.37,49.03,59,tas,924,1944-10-01,2021-12-01
3012212,EDMONTON_NAMAO_A,-113.47,53.67,688,tas,745,1955-11-01,2021-12-01
6130257,AMHERSTBURG,-83.1,42.1,182,tas,381,1988-07-01,2021-12-01
1154203,KIMBERLEY,-115.97,49.63,889,tas,718,1943-02-01,2021-12-01
7117823,SCHEFFERVILLE,-66.8,54.8,521,tas,857,1948-08-01,2021-12-01
6085680,NORTH_BAY,-79.42,46.37,370,tas,1157,1925-01-01,2021-12-01
2201579,FORT_LIARD,-123.47,60.23,213,tas,562,1973-07-01,2021-12-01
6137362,ST_THOMAS,-81.2,42.77,209,tas,1145,1925-10-01,2021-12-01
2400650,CAPE_DYER,-61.38,66.65,725,tas,576,1959-08-01,2021-12-01
7034365,LUSKVILLE,-76.05,45.53,69,tas,478,1980-11-01,2021-11-01
3032680,FORT_MACLEOD,-113.4,49.72,950,tas,1111,1876-06-01,1988-03-01
6142286,ELORA_RCS,-80.42,43.65,376,tas,593,1969-03-01,2021-12-01
1152106,CRANBROOK,-115.78,49.62,927,tas,1353,1901-01-01,2021-12-01
6042717,GERALDTON,-86.93,49.78,348,tas,650,1967-11-01,2021-12-01
1075384,NASS_CAMP,-129.03,55.23,195,tas,499,1973-09-01,2017-12-01
4035480,NASHLYN,-109.52,49.2,945,tas,743,1911-05-01,1979-01-01
5020881,EMERSON,-97.23,49.0,242,tas,1045,1918-04-01,2021-12-01
6121025,BRUCEFIELD,-81.55,43.55,259,tas,1065,1903-03-01,1993-12-01
3081680,COLD_LAKE,-110.28,54.42,541,tas,1136,1925-07-01,2021-12-01
6016525,PICKLE_LAKE,-90.22,51.45,391,tas,900,1934-01-01,2021-12-01
8404343,WRECKHOUSE,-59.32,47.72,32,tas,470,1981-06-01,2021-12-01
7045401,NATASHQUAN,-61.8,50.18,11,tas,1232,1914-10-01,2021-12-01
7037310,ST_HIPPOLYTE,-74.0,45.98,366,tas,706,1961-02-01,2021-11-01
8403851,TERRA_NOVA_NAT_PARK_,-53.97,48.55,107,tas,663,1962-03-01,2021-12-01
6048268,THUNDER_BAY,-89.33,48.37,199,tas,1730,1877-07-01,2021-12-01
4012130,DAVIDSON,-105.8,51.42,640,tas,948,1922-06-01,2008-03-01
7056068,RIMOUSKI,-68.47,48.52,5,tas,797,1952-12-01,2021-12-01
4048521,WASECA,-109.4,53.13,640,tas,1357,1907-07-01,2021-12-01
7025251,MONTREAL__TRUDEAU_IN,-73.75,45.47,32,tas,963,1941-09-01,2021-12-01
1036B06,ALBERNI,-124.93,49.32,76,tas,1445,1900-02-01,2021-12-01
8205702,SYDNEY,-60.05,46.17,63,tas,1794,1870-01-01,2021-12-01
1183090,GERMANSEN,-124.7,55.78,766,tas,730,1951-08-01,2013-11-01
8202251,HALIFAX,-63.52,44.88,145,tas,1721,1871-04-01,2021-12-01
1163781,KAMLOOPS,-120.45,50.7,345,tas,1548,1890-01-01,2021-12-01
7020840,BROME,-72.57,45.18,206,tas,1389,1890-09-01,2014-07-01
8401550,EXPLOITS_DAM,-56.6,48.77,154,tas,622,1956-06-01,2009-02-01
3024925,OLDS,-114.08,51.77,1046,tas,1249,1914-04-01,2021-12-01
6158520,TORONTO_ELLESMERE,-79.27,43.77,164,tas,1158,1895-11-01,1994-12-01
407N51G,NIPAWIN,-104.0,53.33,372,tas,1311,1911-05-01,2021-12-01
6074211,KIRKLAND,-80.0,48.15,324,tas,806,1950-02-01,2021-12-01
4020160,ANEROID,-107.3,49.72,754,tas,969,1922-02-01,2005-04-01
5060608,CHURCHILL,-94.07,58.73,29,tas,1071,1932-01-01,2021-12-01
6165195,MINDEN,-78.72,44.93,274,tas,666,1956-02-01,2011-09-01
7056930,ST_CAMILLE_,-70.22,46.48,396,tas,688,1963-07-01,2021-11-01
7088760,VILLE_MARIE,-79.43,47.35,213,tas,971,1913-12-01,2004-04-01
6148105,STRATFORD,-81.0,43.37,345,tas,1673,1865-01-01,2016-10-01
7086716,LA_SARRE,-79.03,48.25,318,tas,759,1951-09-01,2021-12-01
702FQLF,ST_ANICET,-74.28,45.12,49,tas,721,1960-11-01,2021-12-01
8201001,COLLEGEVILLE,-62.02,45.48,69,tas,1189,1916-06-01,2021-12-01
5012520,RUSSELL,-101.28,50.77,567,tas,1008,1883-09-01,1990-10-01
2403505,RESOLUTE,-94.98,74.72,30,tas,875,1947-10-01,2021-12-01
8403820,STEPHENVILLE,-58.57,48.57,58,tas,1418,1895-06-01,2021-12-01
4010879,BROADVIEW,-102.57,50.37,600,tas,1012,1936-04-01,2021-12-01
7033650,LACHUTE,-74.33,45.65,91,tas,703,1963-01-01,2021-11-01
6073810,IROQUOIS_FALLS,-80.67,48.75,259,tas,1008,1913-03-01,1998-12-01
3060330,ATHABASCA,-113.38,54.63,635,tas,1189,1918-06-01,2021-12-01
3053536,JASPER,-118.03,52.93,1020,tas,1071,1926-09-01,2021-12-01
2402353,HALL_BEACH,-81.25,68.78,8,tas,771,1957-01-01,2021-12-01
2400636,COLD_LAKE,-76.53,64.23,50,tas,1016,1927-09-01,2021-12-01
8104928,ST_LEONARD,-67.83,47.15,242,tas,351,1985-04-01,2014-06-01
6139527,WINDSOR,-82.95,42.28,190,tas,939,1940-08-01,2018-11-01
7066080,PORTAGE_DES_ROCHES,-71.22,48.3,165,tas,697,1926-01-01,1984-06-01
6081928,CRYSTAL_FALLS,-79.87,46.45,227,tas,757,1922-06-01,1988-01-01
6042MJ7,KAKABEKA_FALLS,-89.68,48.35,274,tas,1219,1908-11-01,2014-02-01
1094948,MCBRIDE,-120.35,53.42,733,tas,911,1922-05-01,2009-03-01
4038412,VAL_MARIE,-107.58,49.07,796,tas,873,1937-04-01,2021-12-01
2400570,FOX_FIVE,-63.78,67.53,584,tas,663,1957-09-01,2021-12-01
1025369,NANAIMO_A,-123.87,49.05,28,tas,1450,1892-01-01,2021-12-01
8102201,HARVEY_STATION,-67.03,45.67,183,tas,893,1920-07-01,1996-09-01
2200675,CAPE_PARRY,-124.72,70.17,87,tas,725,1957-05-01,2021-12-01
8401705,GANDER,-54.57,48.95,151,tas,1015,1937-01-01,2021-12-01
3011120,CALMAR,-113.87,53.28,720,tas,1098,1915-11-01,2018-09-01
4020560,BEECHY,-107.32,50.83,660,tas,1103,1926-01-01,2021-11-01
2202202,FORT_SMITH,-111.93,60.03,203,tas,1266,1913-07-01,2021-12-01
1183001,FORT_ST_JOHN,-120.73,56.23,695,tas,991,1939-01-01,2021-12-01
8101605,FREDERICTON,-66.62,45.92,35,tas,1773,1871-12-01,2021-12-01
8104400,REXTON,-64.87,46.67,5,tas,995,1924-09-01,2009-12-01
8202810,KENTVILLE,-64.48,45.07,49,tas,1447,1898-03-01,2021-12-01
6140954,BRANTFORD,-80.23,43.13,196,tas,1377,1876-01-01,2013-01-01
3053600,KANANASKIS,-115.03,51.03,1391,tas,962,1939-08-01,2021-12-01
8100300,AROOSTOOK,-67.72,46.72,80,tas,971,1929-06-01,2021-12-01
1100120,AGASSIZ CDA,-121.77,49.25,15,tas,1483,1893-01-01,2021-12-01
6151061,BURLINGTON,-79.8,43.3,77,tas,845,1947-05-01,2021-12-01
3072921,GRANDE_PRAIRIE,-118.88,55.18,669,tas,1025,1930-10-01,2021-12-01
2300707,CHESTERFIELD,-90.73,63.35,10,tas,894,1930-09-01,2014-11-01
7033939,LA_MACAZA,-74.77,46.37,244,tas,731,1956-10-01,2021-11-01
1016940,SAANICHTON_CDA,-123.42,48.62,61,tas,1282,1914-03-01,2021-12-01
4013660,KELLIHER,-103.75,51.25,676,tas,1271,1908-01-01,2021-12-01
3053760,LAKE_LOUISE,-116.22,51.43,1524,tas,1063,1915-01-01,2007-11-01
8101303,EDMUNDSTON,-68.32,47.42,154,tas,1174,1918-06-01,2021-12-01
8202502,INGONISH_BEACH,-60.4,46.67,10,tas,851,1950-09-01,2021-12-01
4016322,QU_APPELLE,-103.98,50.57,663,tas,1576,1877-11-01,2021-12-01
1162265,DARFIELD,-120.18,51.3,466,tas,1147,1913-12-01,2018-03-01
8101792,GAGETOWN,-66.43,45.83,51,tas,726,1957-01-01,2017-12-01
7047914,SEPT_ILES,-66.25,50.22,53,tas,926,1944-09-01,2021-12-01
402DAF0,LEADER,-109.5,50.92,676,tas,1036,1924-01-01,2021-12-01
4016699,REGINA,-104.67,50.43,577,tas,1486,1898-01-01,2021-12-01
6122847,GODERICH,-81.72,43.77,214,tas,1265,1912-03-01,2021-12-01
3044923,ONEFOUR_CDA,-110.47,49.12,935,tas,1074,1928-08-01,2021-12-01
3036240,SUFFIELD_A,-111.18,50.27,770,tas,704,1950-04-01,2008-12-01
8203100,LIVERPOOL,-64.93,44.13,50,tas,834,1940-01-01,2012-10-01
7021840,COATICOOK,-71.8,45.15,259,tas,828,1949-09-01,2021-11-01
7036855,STE_ANNE_DU_LAC,-75.33,46.85,262,tas,644,1963-06-01,2021-11-01
6047627,SCHREIBER,-87.27,48.82,302,tas,760,1909-03-01,1975-05-01
7046059,GRANDES_BERGERONNES,-69.72,48.13,7,tas,1202,1913-11-01,2021-12-01
3012206,EDMONTON,-113.6,53.3,715,tas,1684,1880-07-01,2021-12-01
1051351,CAPE_ST_JAMES,-131.02,51.93,88,tas,813,1944-12-01,2021-12-01
1085836,OOTSA_LAKE_SKINS_LAK,-126.0,53.77,861,tas,1139,1926-01-01,2021-12-01
707DBD4,LA_TUQUE,-72.78,47.42,169,tas,1254,1911-09-01,2021-12-01
8300100,ALLISTON,-62.6,46.07,61,tas,814,1936-01-01,2016-12-01
1080870,BIG CREEK,-123.07,51.67,1175,tas,1056,1893-01-01,1998-11-01
6155878,ORONO,-78.83,43.87,84,tas,1145,1923-04-01,2021-12-01
6131415,CHATHAM,-82.22,42.38,180,tas,1403,1889-07-01,2019-09-01
6078282,TIMMINS,-81.38,48.55,294,tas,1188,1922-04-01,2021-12-01
6158359,TORONTO_ISLAND_CITY,-79.4,43.63,77,tas,820,1953-05-01,2021-12-01
1013720,JAMES_ISLAND,-123.35,48.6,54,tas,775,1914-02-01,1978-09-01
1180585,BALDONNEL,-120.68,56.23,686,tas,788,1927-01-01,1993-10-01
8202592,KEJIMKUJIK_PARK,-65.2,44.4,125,tas,659,1966-02-01,2021-12-01
8400601,BONAVISTA,-53.12,48.67,26,tas,740,1959-01-01,2021-12-01
7042395,FORET_MONTMORENCY_RC,-71.15,47.32,673,tas,630,1965-07-01,2021-12-01
3012280,ELK_POINT,-111.07,53.88,605,tas,966,1911-01-01,1997-06-01
4055736,OUTLOOK,-107.05,51.48,541,tas,1260,1915-02-01,2021-12-01
7068160,SHIPSHAW,-71.22,48.45,23,tas,853,1921-09-01,1993-10-01
3030QLP,BROOKS,-111.85,50.55,747,tas,1036,1915-05-01,2021-12-01
7035680,NOT__DAME_DU_LAUS,-75.63,46.12,213,tas,730,1929-05-01,1991-05-01
4063753,KEY_LAKE,-105.6,57.25,514,tas,527,1976-10-01,2021-12-01
5050919,FLIN_FLON,-101.68,54.68,304,tas,1100,1927-02-01,2021-12-01
4018880,WHITEWOOD,-102.27,50.35,598,tas,1044,1915-01-01,2008-03-01
7010720,BERTHIERVILLE,-73.18,46.05,12,tas,897,1919-08-01,1995-05-01
3026479,THREE_HILLS,-113.2,51.77,857,tas,1152,1921-02-01,2021-12-01
502I001,CARMAN,-98.03,49.5,268,tas,373,1990-08-01,2021-12-01
2400804,CLYDE,-68.52,70.48,27,tas,887,1946-02-01,2021-12-01
6128330,TOBERMORY,-81.63,45.23,214,tas,1017,1914-02-01,2021-12-01
6145504,MOUNT_FOREST,-80.75,43.98,415,tas,1021,1915-07-01,2021-12-01
1147620,SOUTH_SLOCAN,-117.52,49.47,457,tas,783,1940-10-01,2008-12-01
6075435,MOOSONEE,-80.62,51.3,9,tas,1528,1877-10-01,2021-12-01
8204703,SABLE_ISLAND,-59.97,43.95,1,tas,1456,1897-10-01,2021-12-01
1100119,AGASSIZ RCS,-121.77,49.25,19,tas,380,1988-11-01,2021-12-01
6046768,PUKASKWA,-86.28,48.6,192,tas,813,1948-07-01,2021-12-01
6111769,ORILLIA,-79.53,44.63,285,tas,1210,1892-07-01,2021-12-01
6150689,BELLEVILLE,-77.4,44.15,76,tas,1160,1921-01-01,2021-12-01
50309J6,FISHER_BRANCH,-97.55,51.08,253,tas,513,1977-07-01,2021-12-01
701S001,QUEBEC,-71.38,46.8,60,tas,1747,1875-08-01,2021-12-01
6111467,CHATSWORTH,-80.9,44.4,305,tas,630,1958-06-01,2013-10-01
6105460,MORRISBURG,-75.18,44.92,82,tas,1141,1913-06-01,2008-12-01
6131983,DELHI,-80.55,42.87,232,tas,1046,1934-06-01,2021-12-01
7016840,STE_ANNE_DELA_PERADE,-72.23,46.58,16,tas,842,1949-08-01,2021-11-01
1096631,QUESNEL,-122.5,53.03,545,tas,1460,1899-01-01,2021-12-01
7047250,ST_FEREOL,-70.83,47.12,229,tas,765,1915-06-01,1983-12-01
7055122,MONT_JOLI,-68.2,48.6,55,tas,1741,1875-10-01,2021-12-01
112G8L1,SUMMERLAND,-119.65,49.57,454,tas,1373,1907-07-01,2021-12-01
6010740,BIG_TROUT_LAKE,-89.9,53.82,223,tas,956,1939-02-01,2021-12-01
8103201,MONCTON,-64.68,46.12,71,tas,1464,1898-05-01,2021-12-01
4057165,SASKATOON,-106.72,52.17,504,tas,1458,1900-02-01,2021-12-01
8501131,CHURCHILL_FALLS,-64.1,53.57,440,tas,615,1968-11-01,2021-12-01
8504177,WABUSH_LAKE,-66.87,52.92,551,tas,725,1960-11-01,2021-12-01
3067373,WHITECOURT,-115.78,54.15,782,tas,862,1942-12-01,2016-06-01
6061362,CHAPLEAU,-83.35,47.82,448,tas,1119,1913-07-01,2016-06-01
5042004,MINNEDOSA,-99.57,50.15,412,tas,1377,1881-07-01,2008-11-01
6149625,WOODSTOCK,-80.77,43.13,282,tas,1757,1871-11-01,2021-12-01
7017760,ST_TITE,-72.57,46.73,142,tas,744,1920-05-01,1985-01-01
2100630,HAINES_JUNCTION,-137.58,60.77,595,tas,781,1944-10-01,2021-12-01
7027802,SAWYERVILLE_NORD,-71.53,45.37,346,tas,681,1961-10-01,2021-11-01
4038740,POPLAR_RIVER,-106.38,49.0,876,tas,499,1956-10-01,2002-06-01
4017320,SEMANS,-104.73,51.42,562,tas,755,1923-05-01,1994-06-01
3015401,RANFURLY,-111.73,53.42,687,tas,1403,1905-01-01,2021-12-01
114B1F0,CRESTON,-116.5,49.08,641,tas,1310,1912-06-01,2021-12-01
5031201,GREAT_FALLS,-95.98,50.52,253,tas,1129,1922-09-01,2021-12-01
4015322,MOOSE_JAW,-105.53,50.33,577,tas,1433,1894-03-01,2021-12-01
7024254,LAUZON,-71.1,46.82,69,tas,493,1978-12-01,2021-11-01
6119499,WIARTON,-81.12,44.75,222,tas,825,1953-01-01,2021-12-01
7065012,LAC_STE_CROIX,-71.72,48.6,113,tas,737,1958-07-01,2021-12-01
4015867,CARON,-106.07,50.47,610,tas,924,1915-01-01,2001-09-01
1066482,PRINCE_RUPERT,-130.45,54.28,35,tas,1328,1908-08-01,2021-12-01
4018642,WATROUS,-105.4,51.67,526,tas,822,1953-02-01,2021-12-01
4060983,BUFFALO_NARROWS,-108.42,55.83,440,tas,691,1962-01-01,2021-12-01
1128582,VERNON,-119.2,50.22,482,tas,1455,1900-04-01,2021-12-01
8205200,SPRINGFIELD,-64.85,44.67,167,tas,959,1920-07-01,2003-08-01
8201410,DEMING,-61.18,45.22,16,tas,1135,1913-12-01,2011-12-01
7041382,TETE_BALEINE,-59.63,50.47,8,tas,1258,1911-08-01,2021-12-01
1182289,DAWSON_CREEK,-120.18,55.75,655,tas,770,1952-09-01,2021-12-01
6092920,GORE_BAY,-82.57,45.88,189,tas,1248,1915-10-01,2021-12-01
7033160,HUBERDEAU,-74.63,45.97,213,tas,755,1913-11-01,1980-02-01
5031042,GIMLI,-97.05,50.63,230,tas,905,1944-03-01,2021-12-01
406N0NM,MEADOW_LAKE,-108.52,54.13,481,tas,645,1967-08-01,2021-12-01
6068980,TURBINE,-81.57,46.38,206,tas,895,1914-06-01,1990-03-01
1057051,SANDSPIT,-131.82,53.25,7,tas,877,1945-09-01,2021-12-01
7016675,RIVIERE_VERTE_OU,-71.83,46.98,213,tas,647,1966-01-01,2021-11-01
7027725,ST_SEBASTIEN,-70.95,45.77,442,tas,508,1972-12-01,2016-10-01
3032550,TABER,-112.03,49.8,833,tas,877,1948-01-01,2021-12-01
2201601,FORT_MCPHERSON,-134.87,67.4,35,tas,707,1940-01-01,2014-11-01
7057600,ST_PAMPHILE,-69.78,46.97,388,tas,556,1950-11-01,2004-04-01
6136694,PORT_STANLEY,-81.22,42.67,183,tas,1038,1874-05-01,1993-06-01
7027516,ST_LUDGER,-70.68,45.75,335,tas,674,1964-10-01,2021-11-01
1060844,BELLA COOLA,-126.58,52.38,37,tas,1459,1895-05-01,2021-12-01
7094637,MATAGAMI,-77.8,49.75,281,tas,538,1973-10-01,2021-12-01
1101530,CHILLIWACK,-121.92,49.17,11,tas,1123,1881-02-01,2014-08-01
6060773,BISCOTASING,-82.1,47.3,407,tas,636,1914-01-01,2000-10-01
1075520,NEW_HAZELTON,-127.6,55.23,314,tas,707,1914-08-01,1976-08-01
6077845,SMOKY_FALLS,-82.17,50.07,183,tas,724,1933-10-01,1997-04-01
7022375,FLEURY,-73.0,45.8,31,tas,645,1967-01-01,2021-11-01
1124980,MCCULLOCH,-119.2,49.8,1250,tas,703,1936-01-01,1996-02-01
7024000,LAMBTON,-71.08,45.83,366,tas,792,1915-05-01,1994-05-01
3022400,EMPRESS,-110.0,50.95,612,tas,697,1937-04-01,2006-03-01
7055422,NEW_CARLISLE,-65.33,48.02,46,tas,578,1963-01-01,2021-12-01
4014720,LUMSDEN,-104.87,50.65,497,tas,816,1923-05-01,1994-07-01
1038205,TOFINO_A,-125.77,49.08,24,tas,752,1958-12-01,2021-12-01
4015159,MIDALE,-103.3,49.38,587,tas,1046,1923-05-01,2014-09-01
7051163,CAP_MADELEINE,-65.32,49.25,29,tas,960,1939-02-01,2021-12-01
8205601,STILLWATER,-61.98,45.15,14,tas,885,1915-12-01,2004-02-01
2100184,BURWASH,-139.02,61.37,807,tas,645,1966-10-01,2021-12-01
4019073,YORKTON,-102.47,51.27,498,tas,958,1941-05-01,2021-12-01
2100805,OLD_CROW,-139.83,67.57,251,tas,636,1951-09-01,2021-12-01
1041050,BRITANNIA BEACH FURR,-123.22,49.58,9,tas,774,1913-12-01,2000-04-01
1063690,IVORY_ISLAND,-128.4,52.27,10,tas,389,1989-06-01,2021-12-01
4015560,NOKOMIS,-105.0,51.52,524,tas,990,1923-05-01,2008-02-01
4056243,PRINCE_ALBERT,-105.68,53.22,425,tas,1627,1884-09-01,2021-12-01
3023722,LACOMBE,-113.75,52.45,860,tas,1363,1907-12-01,2021-12-01
3012710,FORT_SASKATCHEWAN,-113.18,53.72,620,tas,691,1958-03-01,2021-12-01
8200100,ANNAPOLIS_ROYAL,-65.52,44.75,8,tas,960,1914-04-01,2006-05-01
1062544,DRYAD_POINT,-128.12,52.18,4,tas,526,1977-11-01,2021-12-01
6155790,ORANGEVILLE,-80.08,43.92,412,tas,645,1961-06-01,2015-12-01
1145460,NEW_DENVER,-117.37,50.0,568,tas,634,1967-05-01,2021-12-01
1018598,VICTORIA_UNIVERSITY_,-123.3,48.45,60,tas,349,1992-12-01,2021-12-01
7116270,QUAQTAQ,-69.63,61.05,30,tas,470,1943-01-01,1988-05-01
7060826,BONNARD,-71.02,50.73,498,tas,683,1961-09-01,2021-12-01
7050240,ARMAGH,-70.53,46.75,358,tas,717,1916-06-01,1994-05-01
1124112,KEREMEOS,-119.82,49.22,435,tas,814,1913-01-01,2000-08-01
7034395,LYTTON,-76.03,46.68,213,tas,785,1927-01-01,1994-05-01
1141455,CASTLEGAR_A,-117.63,49.3,496,tas,718,1959-07-01,2021-12-01
1018611,VICTORIA_GONZALES_CS,-123.32,48.42,61,tas,320,1995-02-01,2021-12-01
6166415,PETERBOROUGH,-78.37,44.23,191,tas,1766,1866-04-01,2021-12-01
7027517,STE_MADELEINE,-73.13,45.62,30,tas,412,1979-09-01,2016-07-01
2100LRP,DAWSON,-139.13,64.07,370,tas,1437,1901-01-01,2021-12-01
1090660,BARKERVILLE,-121.52,53.07,1283,tas,1461,1888-02-01,2021-12-01
3023560,JENNER,-111.2,50.72,755,tas,727,1915-08-01,2008-01-01
1021830,COMOX,-124.9,49.72,26,tas,1024,1935-11-01,2021-12-01
2204101,YELLOWKNIFE,-114.43,62.47,206,tas,953,1942-07-01,2021-12-01
3072659,FORT_CHIPEWYAN,-111.12,58.77,238,tas,1440,1883-10-01,2021-12-01
3016965,WASTINA_HEMARUKA,-111.12,51.67,762,tas,720,1913-03-01,1981-09-01
4052280,DUNDURN,-106.5,51.8,529,tas,720,1923-05-01,1985-03-01
7025745,ORMSTOWN,-74.05,45.12,46,tas,697,1963-07-01,2021-11-01
1012573,DUNCAN,-123.73,48.73,103,tas,1067,1926-01-01,2016-03-01
1173220,GOLDEN,-116.98,51.3,785,tas,1401,1902-04-01,2021-12-01
5030203,BERENS_RIVER,-97.02,52.37,222,tas,1041,1905-01-01,2021-12-01
5043158,MCCREARY,-99.53,50.72,351,tas,604,1971-05-01,2021-12-01
4024919,MAPLE_CREEK,-109.47,49.9,767,tas,1168,1921-07-01,2021-12-01
6037776,SIOUX_LOOKOUT,-91.9,50.12,383,tas,1272,1914-01-01,2021-12-01
1173191,GLACIER,-117.52,51.3,1330,tas,1232,1908-01-01,2014-07-01
7057287,STE_GERMAINE,-70.47,46.42,511,tas,575,1963-01-01,2013-11-01
8400301,GRAND_FALLS,-56.07,48.97,103,tas,872,1934-01-01,2021-12-01
4012600,FORT_QU_APPELLE,-103.8,50.78,486,tas,640,1911-11-01,1973-04-01
7027083,ST_COME_DE_LINIERE,-70.52,46.05,244,tas,654,1965-09-01,2021-11-01
8104901,SAINT_JOHN,-65.88,45.32,109,tas,1788,1871-01-01,2021-12-01
230N002,LUPIN,-111.25,65.75,488,tas,710,1959-01-01,2021-12-01
3010979,SION,-113.92,53.93,714,tas,1233,1908-01-01,2021-12-01
6143089,GUELPH,-80.22,43.55,325,tas,1540,1881-05-01,2021-12-01
1012010,COWICHAN_BAY_CHERRY_,-123.55,48.72,1,tas,783,1913-10-01,1984-03-01
705S002,CAP_CHAT,-66.65,49.12,5,tas,997,1934-05-01,2021-12-01
4086001,PELLY,-101.9,51.73,499,tas,734,1951-08-01,2019-04-01
8300562,ST_PETERS,-62.58,46.45,30,tas,715,1960-12-01,2021-12-01
709CEE9,AMOS_LacBerry,-78.28,48.8,305,tas,1236,1913-06-01,2021-11-01
7024400,MACDONALD_COLL,-73.73,45.47,36,tas,821,1906-05-01,1976-03-01
3070600,BEAVERLODGE,-119.4,55.2,745,tas,1286,1913-04-01,2021-12-01
3025441,RED_DEER,-113.8,52.32,847,tas,1028,1904-07-01,2013-03-01
6053575,HORNEPAYNE,-84.77,49.2,335,tas,797,1917-06-01,1995-07-01
5060623,CROSS_LAKE_JENPEG,-98.03,54.53,219,tas,529,1972-05-01,2017-11-01
7043019,HAVRE_ST_PIERRE,-63.62,50.28,38,tas,662,1964-05-01,2021-12-01
8104501,SACKVILLE,-64.38,45.85,46,tas,775,1935-01-01,2002-03-01
3013361,HUGHENDEN,-110.97,52.52,694,tas,581,1934-10-01,1985-07-01
401HP5R,WEYBURN,-103.8,49.7,589,tas,825,1953-01-01,2021-12-01
1142820,FAUQUIER,-118.07,49.87,490,tas,1174,1913-02-01,2017-12-01
7093716,LA_GRANDE_RIVIERE,-77.7,53.63,195,tas,541,1976-10-01,2021-12-01
1035940,PACHENA_POINT,-125.1,48.72,37,tas,1133,1924-11-01,2021-12-01
5012469,ROBLIN,-101.37,51.18,540,tas,568,1969-11-01,2021-12-01
4022960,GRAVELBOURG,-106.55,49.88,700,tas,809,1921-11-01,1994-10-01
8401295,CORMACK,-57.4,49.32,166,tas,471,1980-12-01,2021-12-01
6072230,EARLTON,-79.85,47.7,243,tas,995,1938-09-01,2021-12-01
1064320,KITIMAT_TOWNSITE,-128.63,54.05,98,tas,790,1954-01-01,2021-12-01
3063165,HIGH_PRAIRIE,-116.48,55.4,602,tas,922,1926-09-01,2021-12-01
3034485,MEDICINE_HAT,-110.72,50.03,715,tas,1643,1883-08-01,2021-12-01
8102300,KEDGWICK,-67.35,47.65,274,tas,503,1931-06-01,1994-09-01
7040442,BAIE_COMEAU,-68.2,49.13,22,tas,659,1965-01-01,2021-12-01
7056120,PORT_DANIEL,-64.98,48.15,69,tas,769,1927-01-01,2004-04-01
7053250,ILES_MADELEINE,-61.78,47.43,11,tas,972,1933-09-01,2018-10-01
1108910,WHITE_ROCK_CAMPBELL_,-122.78,49.02,13,tas,825,1929-01-01,2021-12-01
6061850,CONISTON,-80.85,46.48,268,tas,925,1921-04-01,2002-10-01
1093600,HORSEFLY_LAKE_GRUHS_,-121.37,52.37,777,tas,331,1987-06-01,2016-06-01
6137154,RIDGETOWN,-81.88,42.45,206,tas,1162,1924-01-01,2021-12-01
1032731,ESTEVAN_POINT,-126.55,49.38,6,tas,1157,1923-10-01,2021-12-01
3072525,FAIRVIEW,-118.43,56.08,655,tas,1018,1931-10-01,2021-12-01
1167337,SALMON_ARM,-119.35,50.55,419,tas,1309,1911-07-01,2021-10-01
2402592,IQALUIT,-68.55,63.75,34,tas,899,1946-01-01,2021-12-01
306A009,ENTRANCE,-117.53,53.4,1011,tas,1136,1917-06-01,2021-12-01
1168880,WESTWOLD,-119.75,50.47,609,tas,1069,1921-05-01,2013-05-01
1160H99,BLUE RIVER,-119.28,52.13,683,tas,897,1946-09-01,2021-12-01
8202000,GREENWOOD,-64.92,44.98,28,tas,828,1953-01-01,2021-12-01
3073140,HIGH_LEVEL,-117.17,58.62,338,tas,649,1967-06-01,2021-12-01
4011846,COTE,-101.78,51.52,450,tas,1080,1907-08-01,2006-03-01
502S001,WINNIPEG,-97.25,49.92,239,tas,1793,1872-03-01,2021-12-01
4043901,KINDERSLEY,-109.18,51.52,694,tas,1158,1912-08-01,2021-12-01
8100989,MIRACHIMI,-65.47,47.02,33,tas,1778,1873-01-01,2021-12-01
40190LN,WYNYARD,-104.2,51.77,560,tas,706,1939-07-01,2021-12-01
6153193,HAMILTON,-79.93,43.17,238,tas,1559,1866-01-01,2021-12-01
6020LPQ,ATIKOKAN,-91.63,48.77,389,tas,1182,1917-01-01,2021-12-01
4014913,CARLYLE,-102.1,49.62,633,tas,941,1923-05-01,2004-07-01
4015960,PASWEGIN,-103.92,51.98,533,tas,476,1963-09-01,2003-09-01
2100880,PELLY_RANCH,-137.32,62.83,445,tas,734,1955-01-01,2017-08-01
8403603,ST_JOHN_WEST,-52.78,47.52,110,tas,798,1950-11-01,2021-12-01
4045607,NORTHBATTLEFORD,-108.25,52.77,548,tas,1560,1891-01-01,2021-12-01
3050519,BANFF,-115.55,51.2,1397,tas,1566,1887-11-01,2021-12-01
2101102,TESLIN,-132.73,60.17,705,tas,877,1943-10-01,2021-12-01
7024745,MONTREAL_TAVISH,-73.58,45.5,73,tas,1755,1871-07-01,2021-12-01
1184793,MACKENZIE,-123.13,55.3,694,tas,598,1971-02-01,2021-12-01
6142420,FOLDENS,-80.78,43.02,328,tas,627,1963-06-01,2016-06-01
4018160,TUGASKE,-106.3,50.88,607,tas,1021,1923-06-01,2009-01-01
1031353,CAPE_SCOTT,-128.43,50.78,72,tas,1018,1921-07-01,2016-06-01
2202578,INUVIK,-133.52,68.32,103,tas,774,1957-03-01,2021-12-01
8300596,SUMMERSIDE,-63.83,46.43,12,tas,967,1929-06-01,2021-12-01
6139265,WALLACEBURG,-82.4,42.58,177,tas,980,1905-09-01,1997-04-01
1064321,KITIMAT,-128.7,54.02,17,tas,797,1951-06-01,2021-12-01
6080192,MADAWASKA,-78.27,45.53,397,tas,1206,1915-08-01,2021-12-01
1200560,ATLIN,-133.7,59.57,674,tas,1128,1905-08-01,2021-06-01
6116132,OWEN_SOUND,-80.93,44.58,179,tas,1412,1878-07-01,2007-12-01
3062246,EDSON_A,-116.45,53.58,927,tas,1229,1914-02-01,2021-12-01
5040985,GILBERT_PLAINS,-100.47,51.1,404,tas,664,1958-11-01,2016-06-01
7056616,TROIS_PISTOLES,-69.55,47.8,147,tas,841,1951-07-01,2021-12-01
5021849,MORDEN_EXP_FARM,-98.08,49.18,298,tas,1398,1904-03-01,2021-12-01
4031999,CYPRESS_HILLS,-109.52,49.63,1271,tas,486,1981-05-01,2021-12-01
7030170,ANGERS,-75.55,45.55,91,tas,633,1966-01-01,2021-02-01
11790J1,YOHO_PARK,-116.35,51.45,1602,tas,527,1974-01-01,2021-12-01
8101201,DOAKTOWN,-66.02,46.58,43,tas,749,1952-08-01,2021-12-01
7035520,NOMININGUE,-75.08,46.4,274,tas,1069,1913-11-01,2013-11-01
6073980,KAPUSKASING,-82.45,49.4,218,tas,1244,1918-01-01,2021-12-01
7014290,LES_CEDRES,-74.05,45.3,47,tas,1251,1913-02-01,2021-11-01
7043540,LABRIEVILLE,-69.55,49.3,152,pr,464,1955-01-01,1994-12-01
7044288,LES BUISSONS,-68.38333333333334,49.11666666666667,15,pr,742,1947-01-01,2017-08-01
1073347,HAZELTON TEMLEHAN,-127.73333333333333,55.2,122,pr,946,1915-01-01,1997-04-01
1173191,GLACIER NP ROGERS PASS,-117.51638888888888,51.300916666666666,1323,pr,1219,1909-01-01,2014-07-01
1057050,SANDSPIT ,-131.81305555555556,53.25388888888889,6,pr,805,1949-01-01,2017-03-01
3015960,SION,-114.11666666666666,53.88333333333333,701,pr,1093,1906-01-01,2004-12-01
8200500,BEAR RIVER,-65.63333333333334,44.56666666666667,8,pr,1079,1915-01-01,2006-02-01
230N002,LUPIN,-111.24584166666666,65.75529166666666,488,pr,578,1959-01-01,2007-07-01
5031200,GREAT FALLS,-96.0,50.46666666666667,249,pr,882,1923-01-01,2002-12-01
7051175,CAP SEIZE,-66.4,49.016666666666666,229,pr,955,1905-01-01,1994-05-01
709CEE9,LAC BERRY,-78.28333333333333,48.8,305,pr,1180,1914-01-01,2017-08-01
4060982,BUFFALO NARROWS ,-108.43333333333334,55.833333333333336,440,pr,585,1962-01-01,2012-11-01
3070600,BEAVERLODGE,-119.39641388888889,55.196667222222224,745,pr,1079,1916-01-01,2007-11-01
810AL00,EDMUNDSTON,-68.18777777777778,47.34638888888889,163,pr,1065,1916-01-01,2009-07-01
6053575,HORNEPAYNE ,-84.76666666666667,49.2,335,pr,828,1917-01-01,1995-07-01
6155790,ORANGEVILLE MOE,-80.08640666666666,43.918351666666666,412,pr,1326,1887-01-01,2015-12-01
1062544,DRYAD POINT,-128.11222444444445,52.185000555555554,4,pr,957,1933-01-01,2017-12-01
4061632,COLLINS BAY CAMECO,-103.7,58.18333333333333,490,pr,586,1965-01-01,2017-12-01
1145460,NEW DENVER,-117.370285,49.995835,570,pr,1093,1924-01-01,2017-12-01
7116270,QUAQTAQ,-69.63333333333334,61.05,30,pr,544,1930-01-01,1988-05-01
8206316,WHITE ROCK,-64.38333333333334,45.05,38,pr,1148,1913-01-01,2017-06-01
6072225,EARLTON ,-79.85,47.7,243,pr,792,1939-01-01,2005-01-01
1192940,FORT NELSON ,-122.59722222222223,58.83638888888889,382,pr,896,1938-01-01,2012-11-01
7050240,ARMAGH,-70.53333333333333,46.75,358,pr,914,1916-01-01,1994-05-01
6102857,GODFREY,-76.63333333333334,44.56666666666667,160,pr,934,1924-01-01,2003-05-01
1090660,BARKERVILLE,-121.51472222222222,53.06916666666667,1283,pr,1465,1888-01-01,2015-03-01
4012120,DAVIDSON,-105.98333333333333,51.266666666666666,619,pr,917,1922-01-01,2005-10-01
3023560,JENNER,-111.19585277777777,50.722227777777775,755,pr,763,1916-01-01,2008-01-01
1021830,COMOX ,-124.9,49.71666666666667,26,pr,974,1936-01-01,2017-12-01
6104175,KINGSTON PUMPING STATION,-76.48056666666666,44.243903333333336,77,pr,1549,1872-01-01,2007-12-01
1012573,DUNCAN KELVIN CREEK,-123.72750027777778,48.734722222222224,103,pr,1063,1926-01-01,2016-03-01
1164730,LUMBY SIGALET RD,-118.76666666666667,50.36666666666667,560,pr,872,1924-01-01,1999-02-01
4045605,NORTH BATTLEFORD,-108.25,52.766666666666666,548,pr,1358,1894-01-01,2007-11-01
7027725,ST SEBASTIEN,-70.95,45.766666666666666,442,pr,1161,1915-01-01,2016-10-01
7057600,ST PAMPHILE,-69.78333333333333,46.96666666666667,388,pr,552,1951-01-01,2004-04-01
2303685,SHEPHERD BAY ,-93.43333333333334,68.81666666666666,43,pr,420,1957-01-01,1993-03-01
7103282,INUKJUAK,-78.08333333333333,58.46666666666667,24,pr,659,1938-01-01,1994-02-01
6041109,CAMERON FALLS,-88.35,49.15,229,pr,863,1924-01-01,1998-08-01
6060773,BISCOTASING,-82.1,47.3,407,pr,912,1914-01-01,2000-10-01
8206450,WRECK COVE BROOK,-60.45,46.53333333333333,76,pr,687,1951-01-01,2012-12-01
6077845,SMOKY FALLS,-82.16666666666667,50.06666666666667,183,pr,754,1934-01-01,1997-04-01
3065999,SLAVE LAKE ,-114.78333333333333,55.28333333333333,583,pr,874,1925-01-01,2007-08-01
2204100,YELLOWKNIFE ,-114.44027777777778,62.46277777777778,206,pr,839,1943-01-01,2013-01-01
6059D09,WAWA ,-84.78333333333333,47.96666666666667,287,pr,850,1940-01-01,2014-09-01
3072658,FORT CHIPEWYAN ,-111.11666666666666,58.766666666666666,232,pr,1067,1884-01-01,2007-08-01
1038205,TOFINO ,-125.77250555555555,49.08222222222222,24,pr,756,1942-01-01,2017-12-01
7117825,SCHEFFERVILLE ,-66.81666666666666,54.8,522,pr,535,1949-01-01,1993-09-01
2101100,TESLIN ,-132.7358888888889,60.17413888888889,705,pr,692,1944-01-01,2013-12-01
6128323,TOBERMORY CYPRUS LAKE,-81.53333333333333,45.233333333333334,190,pr,816,1915-01-01,1994-12-01
1041050,BRITANNIA BEACH FURRY CREEK,-123.22361111111111,49.583888888888886,9,pr,1012,1914-01-01,2000-04-01
8200100,ANNAPOLIS ROYAL,-65.51666666666667,44.75,8,pr,964,1915-01-01,2007-12-01
3023722,LACOMBE,-113.75583472222222,52.44889055555556,860,pr,1183,1908-01-01,2007-11-01
5023222,WINNIPEG RICHARDSON ,-97.23333333333333,49.916666666666664,239,pr,1624,1872-01-01,2007-11-01
1160899,BLUE RIVER ,-119.28952777777778,52.12902777777778,683,pr,1032,1929-01-01,2017-12-01
1123360,HEDLEY,-120.07666666666667,49.35722222222222,517,pr,1182,1904-01-01,2005-06-01
4015322,MOOSE JAW,-105.53750833333334,50.33168055555556,577,pr,1258,1895-01-01,2007-11-01
8104900,SAINT JOHN ,-65.88556944444444,45.31805555555555,109,pr,1696,1871-01-01,2012-06-01
7024254,LAUZON,-71.1,46.81666666666667,69,pr,1727,1872-01-01,2017-08-01
3034720,MOUNTAIN VIEW,-113.63001666666666,49.126955555555554,1339,pr,1076,1913-01-01,2006-03-01
4086000,PELLY,-101.86666666666666,52.083333333333336,509,pr,715,1952-01-01,2016-03-01
2400800,CLYDE ,-68.51666666666667,70.48611111111111,27,pr,662,1946-01-01,2002-06-01
8201410,DEMING,-61.17780277777778,45.216390833333335,16,pr,1452,1884-01-01,2011-12-01
6048231,TERRACE BAY ,-87.1,48.81666666666667,290,pr,1117,1910-01-01,2007-09-01
8205200,SPRINGFIELD,-64.85,44.666666666666664,167,pr,994,1920-01-01,2003-08-01
6073975,KAPUSKASING ,-82.4675,49.41388888888889,227,pr,1156,1918-01-01,2014-09-01
1031353,CAPE SCOTT,-128.42722777777777,50.78223333333333,72,pr,1033,1921-01-01,2016-06-01
2202578,INUVIK,-133.51666666666668,68.31666666666666,103,pr,565,1957-01-01,2007-11-01
2403500,RESOLUTE CARS,-94.96944444444445,74.71694444444445,67,pr,802,1948-01-01,2014-11-01
3050600,BEAVER MINES,-114.17695555555555,49.46722777777778,1257,pr,1176,1913-01-01,2012-03-01
8206260,WESTPORT,-66.36666666666666,44.25,18,pr,583,1937-01-01,1993-06-01
6139265,WALLACEBURG,-82.4,42.583333333333336,177,pr,993,1906-01-01,1997-04-01
6116132,OWEN SOUND MOE,-80.93333333333334,44.583333333333336,179,pr,1437,1879-01-01,2007-12-01
3062246,EDSON,-116.45333527777778,53.58027972222222,927,pr,1006,1920-01-01,2007-11-01
6048864,TRANQUILLO RIDGE,-89.51666666666667,48.233333333333334,317,pr,1565,1877-01-01,2007-12-01
1200560,ATLIN,-133.7,59.56666666666667,674,pr,1086,1906-01-01,2017-12-01
6105976,OTTAWA,-75.71666666666667,45.38333333333333,79,pr,1534,1890-01-01,2017-12-01
5021849,MORDEN,-98.08394444444444,49.18763888888889,298,pr,1409,1888-01-01,2007-11-01
6078285,TIMMINS VICTOR POWER ,-81.37666666666667,48.569722222222225,295,pr,654,1955-01-01,2011-02-01
2402730,NANISIVIK ,-84.61666666666666,72.98333333333333,642,pr,733,1938-01-01,2010-12-01
4063755,KEY LAKE,-105.61666666666666,57.25,509,pr,485,1977-01-01,2017-12-01
7035520,NOMININGUE,-75.08333333333333,46.4,274,pr,1125,1914-01-01,2013-11-01
2400595,BYRON BAY ,-109.06666666666666,68.75,92,pr,432,1957-01-01,1993-06-01
4038400,VAL-MARIE,-107.847525,49.37001388888889,808,pr,694,1937-01-01,2010-05-01
6037775,SIOUX LOOKOUT ,-91.9,50.11666666666667,383,pr,1172,1914-01-01,2013-02-01
1020270,ALERT BAY,-126.93333333333334,50.583333333333336,59,pr,839,1924-01-01,1994-02-01
7014290,LES CEDRES,-74.05,45.3,47,pr,1199,1913-01-01,2017-08-01
4014913,MANOR,-102.1,49.61666666666667,633,pr,961,1922-01-01,2004-07-01
8401700,GANDER ,-54.57694444444444,48.94638888888889,151,pr,901,1937-01-01,2012-03-01
4023240,HIGH POINT,-107.93527861111112,50.978612777777776,645,pr,858,1929-01-01,2017-07-01
4015960,PASWEGIN,-103.91666666666667,51.983333333333334,533,pr,536,1951-01-01,2003-09-01
2100880,PELLY RANCH,-137.36666666666667,62.81666666666667,454,pr,721,1952-01-01,2015-03-01
1152102,CRANBROOK ,-115.78194444444445,49.61222222222222,939,pr,1215,1909-01-01,2012-11-01
1054920,MASSET AIRPORT,-132.11747222222223,54.02261111111111,7,pr,1013,1900-01-01,2008-06-01
4043900,KINDERSLEY ,-109.18333333333334,51.516666666666666,694,pr,856,1942-01-01,2013-11-01
2400654,CAPE DYER ,-61.61666666666667,66.58333333333333,393,pr,398,1960-01-01,1993-03-01
3050519,BANFF,-115.55223611111111,51.193358333333336,1397,pr,1345,1894-01-01,2007-11-01
1067742,STEWART ,-129.985,55.93611111111111,7,pr,1222,1911-01-01,2016-06-01
1032730,ESTEVAN POINT,-126.55083333333333,49.3835,7,pr,1114,1924-01-01,2017-12-01
4056240,PRINCE LBERT ,-105.66666666666667,53.21666666666667,428,pr,1496,1889-01-01,2013-11-01
6075425,MOOSONEE,-80.65,51.266666666666666,10,pr,1326,1892-01-01,2017-12-01
2402592,IQALUIT,-68.54444444444445,63.74722222222222,34,pr,649,1946-01-01,2007-11-01
306A009,HINTON VALLEY,-117.53762027777778,53.40381,1011,pr,1087,1917-01-01,2017-12-01
1168880,WESTWOLD,-119.7505563888889,50.46889111111111,609,pr,1072,1921-01-01,2013-05-01
8202000,GREENWOOD ,-64.91666666666667,44.983333333333334,28,pr,900,1943-01-01,2017-12-01
7047912,SEPT-ILES,-66.25,50.21666666666667,53,pr,757,1945-01-01,2017-05-01
6144475,LONDON AIRPORT,-81.1511111111111,43.033055555555556,278,pr,1500,1883-01-01,2017-04-01
4011846,COTE,-101.78333333333333,51.516666666666666,450,pr,1059,1913-01-01,2006-03-01
1166R45,SALMON RM ,-119.23361361111111,50.68555777777778,527,pr,1204,1911-01-01,2013-02-01
1125865,OSOYOOS WEST,-119.44277777777778,49.03194444444444,297,pr,661,1954-01-01,2009-09-01
2402340,GLADMAN POINT ,-97.8,68.66666666666667,14,pr,417,1957-01-01,1992-07-01
1142820,FAUQUIER,-118.0675,49.871944444444445,490,pr,1102,1913-01-01,2015-06-01
840C401,ST ANTHONY ,-56.1,51.38333333333333,33,pr,1292,1883-01-01,2008-01-01
7012071,DONNACONA,-71.73333333333333,46.68333333333333,46,pr,1032,1919-01-01,2008-11-01
1035940,PACHENA POINT,-125.09722222222223,48.72277777777778,37,pr,1104,1925-01-01,2017-12-01
8101200,DOAKTOWN,-66.14029166666667,46.55251388888889,38,pr,762,1944-01-01,2009-06-01
2101081,SWIFT RIVER,-131.18333333333334,60.0,891,pr,448,1967-01-01,2008-02-01
1066481,PRINCE RUPERT ,-130.44472222222223,54.2925,35,pr,1147,1909-01-01,2006-03-01
8102300,KEDGWICK,-67.35,47.65,274,pr,503,1932-01-01,1994-09-01
8401300,CORNER BROOK,-57.95,48.95,5,pr,989,1933-01-01,2017-12-01
3024920,OLDS,-114.1,51.78333333333333,1040,pr,1140,1914-01-01,2015-06-01
6042716,GERALDTON ,-86.93056944444444,49.782802777777775,349,pr,773,1950-01-01,2015-02-01
1101200,BURQUITLAM VANCOUVER GOLF COURSE,-122.87694444444445,49.251666666666665,122,pr,949,1926-01-01,2005-12-01
2400570,FOX FIVE,-63.78888888888889,67.53555555555556,584,pr,382,1959-01-01,2007-09-01
2200675,CAPE PARRY ,-124.71666666666667,70.16666666666667,87,pr,399,1960-01-01,1993-03-01
3011120,CALMAR,-113.86305777777778,53.289724166666666,720,pr,1101,1915-01-01,2016-12-01
6061361,CHAPLEAU ,-83.34666666666666,47.82,447,pr,1126,1914-01-01,2015-03-01
8104400,REXTON,-64.86666666666666,46.666666666666664,5,pr,1021,1923-01-01,2009-12-01
8402050,GRAND FALLS,-55.666666666666664,48.93333333333333,60,pr,669,1937-01-01,2009-01-01
7088760,VILLE MARIE,-79.43333333333334,47.35,213,pr,995,1914-01-01,2004-04-01
6020384,ATIKOKAN MARMION,-91.58333333333333,48.8,442,pr,999,1919-01-01,2007-07-01
6084770,MADAWASKA,-77.98333333333333,45.5,316,pr,1014,1916-01-01,2000-11-01
8204700,SABLE ISLAND,-60.00944444444445,43.93222222222222,5,pr,1268,1891-01-01,2001-12-01
7065640,NORMANDIN,-72.53333333333333,48.85,137,pr,673,1936-01-01,1992-08-01
5030282,BISSETT,-95.7,51.03333333333333,259,pr,567,1933-01-01,1997-06-01
6139141,VINELAND,-79.41666666666667,43.15,110,pr,1131,1919-01-01,2013-12-01
4048520,WASECA,-109.40390277777777,53.130855555555556,638,pr,1260,1908-01-01,2014-12-01
7025250,MONTREAL/PIERRE ELLIOTT TRUDEAU ,-73.75,45.46666666666667,36,pr,1732,1872-01-01,2016-09-01
6073810,IROQUOIS FALLS,-80.66666666666667,48.75,259,pr,1011,1913-01-01,1998-12-01
3053536,JASPER WARDEN,-118.02972222222222,52.92638888888889,1020,pr,843,1936-01-01,2007-11-01
7045400,NATASHQUAN ,-61.81666666666667,50.18333333333333,11,pr,1037,1915-01-01,2003-03-01
1163780,KAMLOOPS ,-120.44194444444445,50.702222222222225,345,pr,1415,1895-01-01,2013-06-01
8202250,HALIFAX STANFIELD ,-63.50001388888889,44.88001666666667,145,pr,1661,1872-01-01,2012-09-01
6139445,WELLAND,-79.26113833333334,42.99252666666667,175,pr,1528,1873-01-01,2014-08-01
5061001,GILLAM ,-94.71055555555556,56.3575,145,pr,802,1943-01-01,2014-10-01
1183090,GERMANSEN LANDING,-124.70144444444445,55.78552777777778,766,pr,727,1952-01-01,2013-11-01
8402450,ISLE UX MORTS,-58.96666666666667,47.583333333333336,5,pr,984,1909-01-01,2004-10-01
7020840,BROME,-72.56666666666666,45.18333333333333,206,pr,1460,1877-01-01,2014-07-01
1062790,FALLS RIVER,-129.73333333333332,53.983333333333334,18,pr,704,1932-01-01,1992-10-01
8401550,EXPLOITS DAM,-56.6,48.766666666666666,154,pr,618,1956-01-01,2009-02-01
3012205,EDMONTON ,-113.58333333333333,53.31666666666667,723,pr,1549,1883-01-01,2012-04-01
8201000,COLLEGEVILLE,-62.016666666666666,45.483333333333334,76,pr,1090,1916-01-01,2014-06-01
1085835,OOTSA L SKINS L SPILLWAY,-125.99655555555556,53.772166666666664,861,pr,1047,1926-01-01,2017-07-01
3034480,MEDICINE HAT ,-110.72083333333333,50.01888888888889,717,pr,1430,1886-01-01,2006-05-01
4020160,ANEROID,-107.3,49.71666666666667,754,pr,942,1922-01-01,2005-04-01
1175122,MICA DAM,-118.58527777777778,52.05305555555555,579,pr,657,1962-01-01,2017-12-01
1183000,FORT ST JOHN ,-120.74027777777778,56.238055555555555,695,pr,948,1931-01-01,2012-12-01
1065010,MCINNES ISLAND,-128.71944444444443,52.26166666666666,26,pr,726,1954-01-01,2017-12-01
2503650,SACHS HARBOUR ,-125.26666666666667,72.0,86,pr,612,1956-01-01,2013-02-01
4011441,CEYLON,-104.65,49.38333333333333,753,pr,935,1922-01-01,2002-12-01
2100182,BURWASH ,-139.05,61.36666666666667,807,pr,556,1967-01-01,2015-02-01
6130257,AMHERSTBURG,-83.09446333333334,42.10335833333333,182,pr,1203,1917-01-01,2017-12-01
2302680,LADY FRANKLIN POINT ,-113.21666666666667,68.5,16,pr,400,1958-01-01,1993-03-01
7055120,MONT-JOLI ,-68.21666666666667,48.6,52,pr,840,1943-01-01,2013-03-01
4019082,TONKIN,-102.23333333333333,51.2,527,pr,890,1941-01-01,2016-01-01
3025770,SCOTFIELD,-111.36361166666667,51.583355555555556,762,pr,907,1913-01-01,2007-10-01
1075384,NASS CAMP,-129.02944444444444,55.2375,290,pr,1017,1924-01-01,2015-02-01
3081680,COLD LAKE ,-110.28333333333333,54.416666666666664,541,pr,1078,1926-01-01,2017-12-01
8504175,WABUSH LAKE ,-66.87416666666667,52.92722222222222,551,pr,621,1961-01-01,2013-02-01
1126510,PRINCETON ,-120.5125,49.467777777777776,700,pr,1400,1901-01-01,2017-12-01
7103536,KUUJJUARAPIK ,-77.75,55.28333333333333,10,pr,892,1934-01-01,2014-04-01
1117215,SHALALTH,-122.24055555555556,50.72833333333333,244,pr,678,1935-01-01,2004-04-01
7058520,TRINITE DES MONTS,-68.48333333333333,48.13333333333333,262,pr,585,1951-01-01,2004-04-01
6016527,PICKLE LAKE ,-90.21416666666667,51.44638888888889,386,pr,800,1933-01-01,2012-07-01
5042004,NEEPAWA MURRAY 6 SOUTHWEST,-99.56666666666666,50.15,412,pr,1381,1881-01-01,2008-11-01
3072920,GRANDE PRAIRIE ,-118.885,55.179722222222225,669,pr,919,1931-01-01,2013-09-01
6149625,WOODSTOCK,-80.77056666666667,43.13612333333333,282,pr,1746,1870-01-01,2017-12-01
6153194,HAMILTON ,-79.93417666666667,43.171686666666666,238,pr,1353,1866-01-01,2011-12-01
4038740,WEST POPLAR RIVER,-106.38333333333334,49.0,876,pr,497,1957-01-01,2002-06-01
3012280,ELK POINT,-111.06666666666666,53.88333333333333,605,pr,958,1913-01-01,1997-06-01
4055736,OUTLOOK,-107.05,51.483333333333334,541,pr,1082,1915-01-01,2007-11-01
8205700,SYDNEY ,-60.048138888888886,46.166666666666664,62,pr,1712,1870-01-01,2014-08-01
2402350,HALL BEACH ,-81.2425,68.77583333333334,8,pr,652,1957-01-01,2014-12-01
4063560,ISLAND FALLS,-102.35,55.53333333333333,299,pr,873,1931-01-01,2004-09-01
2400635,CAPE DORSET ,-76.525,64.23027777777777,50,pr,857,1932-01-01,2014-11-01
2201700,TULITA ,-125.56833333333333,64.90861111111111,101,pr,825,1904-01-01,2014-12-01
4068840,WHITESAND DAM,-103.15,56.233333333333334,344,pr,780,1938-01-01,2004-09-01
6085700,NORTH BAY ,-79.42277777777778,46.36361111111111,370,pr,1112,1915-01-01,2013-01-01
1051350,CAPE ST JAMES,-131.01666666666668,51.93333333333333,89,pr,743,1926-01-01,1992-08-01
6150689,BELLEVILLE,-77.394735,44.15057,76,pr,1116,1921-01-01,2017-12-01
7048320,TADOUSSAC,-69.7,48.15,70,pr,962,1914-01-01,2004-04-01
3015405,RANFURLY 2NW,-111.73333333333333,53.416666666666664,673,pr,1316,1905-01-01,2014-11-01
6105460,MORRISBURG,-75.18834333333334,44.92361833333333,82,pr,1142,1913-01-01,2008-12-01
3044923,ONEFOUR,-110.46666666666667,49.11666666666667,935,pr,849,1928-01-01,2007-10-01
4016560,REGINA ,-104.66666666666667,50.43333333333333,577,pr,1312,1898-01-01,2007-11-01
8203100,LIVERPOOL BIG FALLS,-64.93333333333334,44.13333333333333,50,pr,851,1940-01-01,2012-10-01
1080870,BIG CREEK,-123.07305694444445,51.66722361111111,1175,pr,1004,1904-01-01,1998-11-01
6139525,WINDSOR ,-82.95555555555555,42.275555555555556,190,pr,1462,1866-01-01,2014-10-01
7052865,GRANDE VALLEE,-65.15,49.2,8,pr,1343,1883-01-01,2004-04-01
4064150,LA RONGE ,-105.26666666666667,55.15,379,pr,782,1923-01-01,2013-10-01
6092925,GORE BAY ,-82.56666666666666,45.88333333333333,194,pr,926,1916-01-01,1994-01-01
8100300,AROOSTOOK,-67.71555555555555,46.71222222222222,91,pr,1087,1920-01-01,2017-12-01
1100120,AGASSIZ,-121.76027777777777,49.24305555555556,15,pr,1519,1890-01-01,2017-12-01
3067372,WHITECOURT ,-115.78666666666666,54.14388888888889,782,pr,765,1943-01-01,2009-05-01
2300707,CHESTERFIELD INLET ,-90.7311111111111,63.346944444444446,10,pr,909,1931-01-01,2014-11-01
2100402,DAWSON ,-139.12777777777777,64.04305555555555,370,pr,1326,1901-01-01,2015-02-01
2100631,HAINES JUNCTION,-137.50525,60.749544444444446,596,pr,715,1945-01-01,2008-09-01
8206200,UPPER STEWIACKE,-63.0,45.21666666666667,23,pr,1054,1916-01-01,2008-04-01
4013660,KELLIHER,-103.75302777777777,51.257416666666664,676,pr,1230,1908-01-01,2017-12-01
1060841,BELLA COOLA ,-126.59583333333333,52.3875,36,pr,1406,1899-01-01,2017-11-01
1016940,SAANICHTON,-123.41888888888889,48.62166666666667,61,pr,1240,1914-01-01,2017-12-01
1096630,QUESNEL ,-122.51,53.02611111111111,545,pr,1263,1900-01-01,2007-03-01
5050920,FLIN FLON,-101.88333333333334,54.766666666666666,320,pr,957,1927-01-01,2017-12-01
8103200,MONCTON ,-64.68380555555555,46.10530555555555,71,pr,1357,1898-01-01,2012-06-01
4064600,LOON LAKE EPF,-109.1,54.05,543,pr,813,1930-01-01,2005-10-01
1162265,DARFIELD,-120.18266666666666,51.297333333333334,412,pr,1227,1914-01-01,2017-11-01
8502NHR,MAKKOVIK ,-59.18861111111111,55.08222222222222,71,pr,800,1942-01-01,2014-11-01
2202200,FORT SMITH ,-111.96194444444444,60.02027777777778,205,pr,1177,1915-01-01,2014-11-01
402DAF0,LEADER AIRPORT,-109.50139166666666,50.90946388888889,676,pr,1001,1923-01-01,2007-11-01
5012321,PORTAGE LA PRAIRIE,-98.26666666666667,49.95,259,pr,806,1942-01-01,2017-12-01
5010480,BRANDON ,-99.95194444444445,49.91,409,pr,1457,1890-01-01,2012-12-01
7113534,KUUJJUAQ ,-68.41666666666667,58.1,39,pr,801,1947-01-01,2014-03-01
7080468,BARRAGE TEMISCAMINGUE,-79.10111111111111,46.709722222222226,181,pr,1000,1910-01-01,1995-10-01
6119500,WIARTON ,-81.10722222222222,44.74583333333333,222,pr,800,1948-01-01,2014-11-01
5022759,SPRAGUE,-95.59833583333334,49.02361111111111,329,pr,1094,1916-01-01,2007-11-01
1168520,VAVENBY,-119.77805555555555,51.57611111111111,445,pr,1250,1913-01-01,2017-12-01
2402684,LONGSTAFF BLUFF,-75.14083333333333,68.89861111111111,161,pr,398,1958-01-01,1991-06-01
1088010,TATLAYOKO LAKE,-124.405,51.67472222222222,870,pr,908,1928-01-01,2005-04-01
1021480,CHATHAM POINT,-125.44555555555556,50.333194444444445,23,pr,946,1932-01-01,2016-02-01
4021520,CHAPLIN,-106.65,50.46666666666667,672,pr,995,1904-01-01,1995-09-01
1108447,VANCOUVER ,-123.18194444444444,49.195,4,pr,1408,1896-01-01,2013-06-01
4055079,MELFORT,-104.6,52.81666666666667,490,pr,1143,1910-01-01,2007-11-01
6158350,TORONTO,-79.4,43.666666666666664,113,pr,1992,1840-01-01,2017-04-01
1182285,DAWSON CREEK ,-120.18194444444444,55.74166666666667,655,pr,585,1952-01-01,2007-02-01
1036570,QUATSINO,-127.65333583333333,50.53361388888889,8,pr,1410,1895-01-01,2017-12-01
1123993,KELOWNA QUAILS GATE,-119.57277777777777,49.84222222222222,417,pr,1364,1899-01-01,2014-04-01
7024280,LENNOXVILLE,-71.8236111111111,45.36888888888889,181,pr,965,1915-01-01,1995-10-01
3033880,LETHBRIDGE ,-112.79972222222223,49.63027777777778,929,pr,1267,1902-01-01,2007-08-01
1104488,LAIDLAW,-121.57966666666667,49.3565,27,pr,1240,1910-01-01,2015-06-01
5061648,LYNN LAKE,-101.07611111111112,56.86388888888889,357,pr,634,1952-01-01,2007-11-01
6166418,PETERBOROUGH ,-78.36666666666666,44.233333333333334,191,pr,1595,1866-01-01,2007-05-01
1171020,BRISCO,-116.25805555555556,50.82055555555556,823,pr,911,1924-01-01,2004-03-01
8100503,BATHURST ,-65.7483388888889,47.62918055555556,59,pr,1304,1884-01-01,2013-10-01
1145442,NELSON NE,-117.2063888888889,49.58611111111111,570,pr,1264,1904-01-01,2017-12-01
850A131,CHURCHILL FALLS,-63.96666666666667,53.53333333333333,489,pr,337,1969-01-01,1998-04-01
2203910,TUKTOYAKTUK,-133.0,69.45,18,pr,433,1957-01-01,1993-06-01
1092970,FORT ST JAMES,-124.2855561111111,54.455280277777774,686,pr,1470,1895-01-01,2017-12-01
8401400,DANIELS HARBOUR,-57.58111111111111,50.23638888888889,19,pr,577,1947-01-01,1998-01-01
6010738,BIG TROUT LAKE,-89.86666666666666,53.833333333333336,224,pr,641,1939-01-01,1992-10-01
8101500,FREDERICTON ,-66.52789166666666,45.87213055555556,21,pr,1619,1874-01-01,2010-04-01
3051R4R,CROWSNEST,-114.48195,49.627525,1303,pr,1055,1913-01-01,2007-11-01
250M001,MOULD BAY,-119.34723333333334,76.23751666666666,2,pr,635,1948-01-01,2007-11-01
10253G0,NANAIMO CITY YARD,-123.98777777777778,49.19888888888889,114,pr,1191,1913-01-01,2017-12-01
4083323,HUDSON BAY,-102.58333333333333,52.88333333333333,422,pr,798,1943-01-01,2013-12-01
1107200,SEYMOUR FALLS,-122.97111111111111,49.44027777777778,244,pr,901,1928-01-01,2003-09-01
5041535,LANGRUTH WEST,-98.80277777777778,50.41388888888889,264,pr,507,1958-01-01,2005-02-01
1125766,OLIVER STP,-119.54446944444445,49.17890277777778,297,pr,1107,1924-01-01,2017-12-01
1142160,CRESTON,-116.51783333333333,49.097055555555556,597,pr,1224,1912-01-01,2015-06-01
7038080,SHEENBORO,-77.25,45.96666666666667,137,pr,1090,1915-01-01,2014-10-01
3031093,CALGARY ,-114.02027777777778,51.11388888888889,1084,pr,1530,1885-01-01,2012-07-01
6124700,LUCKNOW,-81.5,43.95,290,pr,1299,1885-01-01,1993-12-01
6115811,ORILLIA BRAIN,-79.43888888888888,44.602777777777774,250,pr,1500,1871-01-01,2017-12-01
2300750,CLINTON POINT,-120.8,69.58333333333333,101,pr,433,1957-01-01,1993-06-01
2202800,NORMAN WELLS ,-126.80027777777778,65.2825,73,pr,830,1943-01-01,2012-10-01
4075518,NIPAWIN ,-104.0,53.333333333333336,372,pr,1049,1911-01-01,2005-09-01
1126150,PENTICTON ,-119.60222222222222,49.463055555555556,344,pr,1255,1907-01-01,2012-05-01
7031360,CHELSEA,-75.78333333333333,45.516666666666666,113,pr,1027,1928-01-01,2017-08-01
1125700,OKANAGAN CENTRE,-119.44394444444444,50.05625,501,pr,1068,1925-01-01,2017-12-01
5022780,STEINBACH,-96.76666666666667,49.53333333333333,254,pr,571,1956-01-01,2005-03-01
8501100,CARTWRIGHT,-57.035,53.708333333333336,14,pr,937,1936-01-01,2015-03-01
6032119,DRYDEN ,-92.75,49.833333333333336,413,pr,1059,1914-01-01,2005-01-01
3075040,PEACE RIVER ,-117.44722222222222,56.22694444444444,571,pr,990,1908-01-01,2014-05-01
8205990,TRURO,-63.266666666666666,45.36666666666667,40,pr,1075,1910-01-01,2002-10-01
1064020,KEMANO,-127.94305555555556,53.56333333333333,87,pr,737,1952-01-01,2017-12-01
4068559,WASKESIU LAKE,-106.06666666666666,53.916666666666664,569,pr,478,1966-01-01,2007-11-01
3073641,KEG RIVER,-117.61666666666666,57.75,405,pr,786,1936-01-01,2009-01-01
116146F,CELISTA,-119.37944444444445,50.955555555555556,515,pr,967,1924-01-01,2004-07-01
8402874,NORTH HARBOUR,-53.666666666666664,47.13333333333333,11,pr,797,1939-01-01,2007-11-01
5032162,PINAWA WNRE,-96.05833333333334,50.18055555555556,267,pr,1188,1915-01-01,2017-03-01
6014350,LANSDOWNE HOUSE,-87.88333333333334,52.233333333333334,255,pr,569,1941-01-01,1989-06-01
8300700,SUMMERSIDE ,-63.83166666666666,46.43888888888889,20,pr,709,1936-01-01,2002-06-01
8105600,WOODSTOCK,-67.55361111111111,46.17027777777778,153,pr,1118,1914-01-01,2017-12-01
3060L20,ATHABASCA,-113.2880575,54.72222305555555,515,pr,1120,1918-01-01,2017-12-01
8100880,CHARLO ,-66.33333333333333,47.983333333333334,40,pr,712,1934-01-01,2002-10-01
7056480,RIMOUSKI,-68.51666666666667,48.45,36,pr,1644,1877-01-01,2017-08-01
8203700,NAPPAN,-64.25,45.766666666666666,20,pr,1082,1913-01-01,2003-07-01
7074240,LA TUQUE,-72.78333333333333,47.4,152,pr,1042,1912-01-01,2004-04-01
2202400,HAY RIVER ,-115.78277777777778,60.83972222222222,166,pr,1254,1909-01-01,2014-09-01
7098600,VAL-D'OR ,-77.78666666666666,48.05638888888889,337,pr,600,1952-01-01,2017-12-01
3031400,CARWAY,-113.37611111111111,48.999725,1354,pr,1131,1915-01-01,2011-11-01
1160483,ARMSTRONG HULLCAR,-119.21666666666667,50.5,505,pr,1023,1912-01-01,1998-12-01
1068130,TERRACE ,-128.5775,54.466388888888886,217,pr,1186,1913-01-01,2013-01-01
1054500,LANGARA,-133.05799972222223,54.25518,41,pr,969,1937-01-01,2017-12-01
1098940,WILLIAMS LAKE ,-122.05416666666666,52.183055555555555,940,pr,918,1936-01-01,2012-12-01
7080452,BARRAGE ANGLIERS,-79.23583333333333,47.551944444444445,267,pr,1016,1911-01-01,1996-05-01
8105200,SUSSEX,-65.53333333333333,45.71666666666667,21,pr,1326,1898-01-01,2009-05-01
8300300,CHARLOTTETOWN ,-63.12863055555555,46.28861666666667,49,pr,1657,1872-01-01,2012-09-01
2302650,JENNY LIND ISLAND ,-101.73333333333333,68.65,18,pr,401,1958-01-01,1992-07-01
6136336,PELEE ISLAND ,-82.68333333333334,41.78333333333333,174,pr,1090,1888-01-01,1994-09-01
4024080,KLINTONEL,-108.91666666666667,49.68333333333333,1074,pr,977,1911-01-01,1994-01-01
3062427,ENILDA-BERG,-116.3,55.416666666666664,591,pr,689,1932-01-01,2005-04-01
5030080,ARBORG,-97.08333333333333,50.93333333333333,224,pr,750,1951-01-01,2016-06-01
8501900,GOOSE ,-60.416666666666664,53.31666666666667,49,pr,912,1942-01-01,2017-12-01
4028060,SWIFT CURRENT,-107.73333333333333,50.266666666666666,825,pr,1452,1886-01-01,2007-11-01
3062693,FORT MCMURRAY ,-111.21666666666667,56.65,369,pr,1049,1920-01-01,2007-11-01
2202750,NICHOLSON PENINSULA,-128.96666666666667,69.93333333333334,89,pr,420,1958-01-01,1993-06-01
4013480,INDIAN HEAD,-103.65,50.55,579,pr,1333,1895-01-01,2007-11-01
3011887,CORONATION,-111.44944444444444,52.07416666666666,791,pr,849,1928-01-01,2007-11-01
2101200,WATSON LAKE ,-128.82233333333335,60.1165,687,pr,880,1939-01-01,2014-12-01
2201903,FORT RELIANCE,-109.16833333333334,62.71138888888889,168,pr,604,1949-01-01,2007-08-01
8300447,MONTICELLO,-62.46666666666667,46.46666666666667,32,pr,511,1960-01-01,2003-12-01
1024638,LITTLE QUALICUM HATCHERY,-124.51222222222222,49.352777777777774,30,pr,1009,1924-01-01,2017-12-01
8502800,NAIN ,-61.68333333333333,56.55,7,pr,536,1939-01-01,2013-03-01
5052880,THE PAS ,-101.1,53.96666666666667,270,pr,1242,1910-01-01,2014-11-01
7016960,ST CHARLES DE MANDEVILLE,-73.35,46.35,168,pr,1106,1921-01-01,2017-08-01
3016119,STETTLER NORTH,-112.71666666666667,52.333333333333336,821,pr,922,1919-01-01,2001-08-01
3035206,PINCHER CREEK,-113.99722222222222,49.52055555555555,1190,pr,1021,1915-01-01,2007-11-01
2402686,MACKAR INLET,-85.66666666666667,68.3,395,pr,412,1958-01-01,1992-05-01
7091404,CHIBOUGAMAU CHAPAIS ,-74.53333333333333,49.766666666666666,387,pr,770,1937-01-01,2016-11-01
7037400,ST JEROME,-74.05,45.8,170,pr,971,1932-01-01,2017-08-01
3011240,CAMROSE,-112.81416666666667,53.03472222222222,739,pr,675,1946-01-01,2007-11-01
7030310,ARUNDEL,-74.61666666666666,45.95,191,pr,1156,1914-01-01,2017-05-01
2202000,FORT RESOLUTION ,-113.68972222222222,61.18083333333333,160,pr,776,1931-01-01,2014-11-01
5062045,NORWAY HOUSE,-97.85,53.96666666666667,224,pr,838,1896-01-01,2007-11-01
3072723,FORT VERMILION,-116.04016666666666,58.382305555555554,289,pr,996,1909-01-01,2007-11-01
2100685,KOMAKUK BEACH ,-140.18333333333334,69.58333333333333,7,pr,401,1959-01-01,1993-06-01
1058190,TLELL,-131.95,53.5,5,pr,586,1950-01-01,1999-01-01
2301000,CORAL HARBOUR ,-83.35944444444445,64.19333333333333,64,pr,839,1945-01-01,2015-05-01
1142400,DEER PARK,-118.05,49.416666666666664,485,pr,841,1924-01-01,1995-09-01
2400660,CAPE HOOPER,-66.81527777777778,68.4725,390,pr,397,1958-01-01,2007-09-01
2202101,FORT SIMPSON ,-121.23666666666666,61.76027777777778,169,pr,1340,1898-01-01,2014-10-01
4012400,ESTEVAN ,-102.96666666666667,49.21666666666667,581,pr,1130,1902-01-01,2015-02-01
4015360,MOOSOMIN,-101.66666666666667,50.13333333333333,576,pr,848,1900-01-01,2000-09-01
1038332,UCLUELET KENNEDY CAMP,-125.52723611111111,48.945283333333336,30,pr,710,1958-01-01,2017-12-01
7013362,JOLIETTE VILLE,-73.43333333333334,46.016666666666666,56,pr,1122,1914-01-01,2011-04-01
1143900,KASLO,-116.91534361111111,49.91354472222222,591,pr,1254,1912-01-01,2017-12-01
7054095,LA POCATIERE,-70.03333333333333,47.35,31,pr,994,1913-01-01,1996-03-01
7060400,BAGOTVILLE ,-71.0,48.333333333333336,159,pr,1623,1876-01-01,2017-12-01
7048421,TETE A LA BALEINE,-59.31666666666667,50.7,9,pr,840,1912-01-01,1995-03-01
3031F5F,CLARESHOLM MEADOW CREEK,-113.73751944444444,49.93752222222222,1035,pr,1065,1913-01-01,2005-03-01
8203600,MOUNT UNIACKE,-63.833333333333336,44.9,159,pr,965,1920-01-01,2003-07-01
7025440,NICOLET,-72.61666666666666,46.2,30,pr,1210,1914-01-01,2017-08-01
7027283,ST GEORGES,-70.7,46.15,168,pr,1240,1913-01-01,2017-08-01
7057720,STE ROSE DU DEGELIS,-68.63333333333334,47.56666666666667,151,pr,807,1933-01-01,2004-04-01
1176751,REVELSTOKE,-118.16638888888889,50.95333333333333,450,pr,1116,1898-01-01,1999-08-01
8103500,NEPISIGUIT FALLS,-65.78333333333333,47.4,106,pr,954,1922-01-01,2006-02-01
6110606,BEATRICE,-79.4,45.13333333333333,297,pr,1580,1876-01-01,2008-09-01
3022136,DRUMHELLER ANDREW,-112.86666666666666,51.46666666666667,719,pr,629,1954-01-01,2008-03-01
4056120,PILGER,-105.15,52.416666666666664,552,pr,1048,1913-01-01,2011-09-01
504K80K,SWAN RIVER,-101.23291666666667,52.11497222222222,335,pr,554,1960-01-01,2007-10-01
2303092,KUGAARUK ,-89.79722222222222,68.54055555555556,17,pr,647,1957-01-01,2012-08-01
5040681,DAUPHIN,-100.05688888888889,51.10038888888889,305,pr,1093,1911-01-01,2007-10-01
6025205,MINE CENTRE SOUTHWEST,-92.62277777777778,48.75973888888889,361,pr,1209,1914-01-01,2017-12-01
7051200,CAUSAPSCAL,-67.23333333333333,48.36666666666667,168,pr,1111,1921-01-01,2017-08-01
1107680,STAVE FALLS,-122.36666666666666,49.233333333333334,110,pr,1057,1910-01-01,2004-08-01
8206500,YARMOUTH ,-66.0886111111111,43.83083333333333,43,pr,1582,1880-01-01,2012-04-01
1114627,LILLOOET SETON BCHPA,-121.92416666666666,50.67333333333333,198,pr,899,1917-01-01,2001-04-01
1114745,LYTTON,-121.60777777777778,50.25694444444444,174,pr,1050,1917-01-01,2015-06-01
7035160,MONT LAURIER,-75.55,46.56666666666667,244,pr,1045,1920-01-01,2014-06-01
2204300,YOHIN,-123.74166666666666,61.24194444444444,204,pr,476,1957-01-01,2007-09-01
6022476,FORT FRANCES ,-93.43333333333334,48.65,342,pr,1169,1912-01-01,2011-05-01
5031039,GIMLI,-97.01666666666667,50.63333333333333,223,pr,740,1944-01-01,2008-03-01
5012080,PIERSON,-101.26666666666667,49.18333333333333,469,pr,832,1933-01-01,2007-03-01
6057592,SAULT STE MARIE ,-84.50944444444444,46.483333333333334,192,pr,764,1945-01-01,2012-03-01
1021960,CORTES ISLAND TIBER BAY,-124.94944444444444,50.07138888888889,15,pr,1134,1919-01-01,2017-12-01
7052605,GASPE ,-64.47805555555556,48.776944444444446,33,pr,1104,1916-01-01,2013-03-01
8400413,BAY D'ESPOIR,-55.8,47.983333333333334,23,pr,545,1968-01-01,2017-12-01
2401200,EUREKA,-85.93333333333334,79.98333333333333,10,pr,816,1948-01-01,2016-02-01
8204800,ST MARGARET'S BAY,-63.9,44.7,17,pr,1100,1922-01-01,2017-12-01
1017230,SHAWNIGAN LAKE,-123.62640833333333,48.646947222222224,138,pr,1271,1911-01-01,2017-12-01
4019040,YELLOW GRASS,-104.18333333333334,49.81666666666667,580,pr,1219,1912-01-01,2017-07-01
4047241,SCOTT,-108.83472333333333,52.35974,660,pr,1152,1911-01-01,2007-11-01
2101300,WHITEHORSE ,-135.06883333333334,60.7095,706,pr,826,1942-01-01,2012-12-01
1047770,STILLWATER POWER HOUSE,-124.31666666666666,49.766666666666666,7,pr,895,1931-01-01,2007-07-01
1036240,PORT ALICE,-127.4552861111111,50.38583611111111,21,pr,1088,1924-01-01,2016-04-01
1125079,MERRITT STP,-120.80083472222222,50.11416777777778,609,pr,1048,1919-01-01,2017-12-01
6100971,BROCKVILLE PCC,-75.66666666666667,44.6,96,pr,1218,1915-01-01,2017-12-01
6016975,RED LAKE ,-93.79305555555555,51.066944444444445,386,pr,738,1939-01-01,2012-05-01
2400306,ALERT,-62.333333333333336,82.5,65,pr,810,1950-01-01,2017-12-01
5031320,INDIAN BAY,-95.19722222222222,49.62388888888889,327,pr,1199,1915-01-01,2017-12-01
1148700,WARFIELD,-117.75,49.1,606,pr,881,1928-01-01,2002-12-01
6068150,SUDBURY ,-80.79777777777778,46.62555555555556,348,pr,1094,1921-01-01,2013-03-01
7028200,SOREL,-73.11666666666666,46.03333333333333,15,pr,1218,1914-01-01,2017-08-01
1192340,DEASE LAKE,-130.01055666666667,58.428335,807,pr,742,1945-01-01,2008-07-01
7018000,SHAWINIGAN,-72.75,46.56666666666667,122,pr,1117,1902-01-01,2004-04-01
8402958,PLUM POINT,-56.88333333333333,51.06666666666667,6,pr,521,1972-01-01,2016-06-01
7038975,WRIGHT,-76.05,46.06666666666667,142,pr,1195,1914-01-01,2017-08-01
2100700,MAYO ,-135.86666666666667,63.61666666666667,504,pr,1041,1925-01-01,2013-11-01
1158730,WASA,-115.63077777777778,49.823972222222224,930,pr,1094,1924-01-01,2017-12-01
8403506,ST JOHN'S ,-52.742777777777775,47.62222222222222,141,pr,1582,1874-01-01,2012-03-01
5010240,BIRTLE,-101.05,50.43333333333333,522,pr,938,1917-01-01,2000-11-01
6040330,ARMSTRONG JELLIEN,-89.1,50.25,341,pr,580,1939-01-01,1992-10-01
1096450,PRINCE GEORGE ,-122.67888888888889,53.89083333333333,691,pr,1149,1913-01-01,2009-10-01
2400600,CAMBRIDGE BAY ,-105.13833333333334,69.10805555555555,27,pr,871,1940-01-01,2015-02-01
7022160,DRUMMONDVILLE,-72.48333333333333,45.88333333333333,82,pr,1213,1914-01-01,2017-08-01
1152850,FERNIE,-115.07222222222222,49.48888888888889,1001,pr,1201,1914-01-01,2017-12-01
5031111,GRAND RAPIDS HYDRO,-99.28334444444444,53.158055833333336,223,pr,649,1962-01-01,2017-12-01
2300500,BAKER LAKE ,-96.07777777777778,64.29888888888888,18,pr,770,1949-01-01,2013-11-01
6137149,RIDGETOWN,-81.88333333333334,42.45,206,pr,1102,1883-01-01,1997-04-01
8204400,PARRSBORO,-64.33333333333333,45.4,24,pr,1179,1897-01-01,2002-09-01
1026270,PORT HARDY ,-127.36611111111111,50.680277777777775,22,pr,832,1944-01-01,2013-06-01
1123750,JOE RICH CREEK,-119.12611111111111,49.85722222222222,875,pr,914,1929-01-01,2008-12-01
4057120,SASKATOON DIEFENBAKER ,-106.71666666666667,52.166666666666664,504,pr,1285,1900-01-01,2007-11-01
5060606,CHURCHILL,-94.06666666666666,58.733333333333334,29,pr,949,1932-01-01,2015-12-01
1173210,GOLDEN ,-116.98166666666667,51.29833333333333,785,pr,1289,1908-01-01,2017-12-01
3061200,CAMPSIE,-114.6777788888889,54.13222277777778,671,pr,1223,1910-01-01,2013-10-01
3036682,VAUXHALL,-112.13333333333334,50.05,779,pr,905,1914-01-01,2007-11-01
6158733,TORONTO LESTER B. PEARSON ,-79.63055555555556,43.67722222222222,173,pr,901,1938-01-01,2013-06-01
1046390,POWELL RIVER,-124.55416666666666,49.87611111111111,52,pr,995,1924-01-01,2007-07-01
3053250,HIGHWOOD AU,-114.37055555555555,50.55111111111111,1580,pr,1172,1903-01-01,2011-09-01
1026639,QUINSAM RIVER HATCHERY,-125.30388888888889,50.01611111111111,46,pr,974,1936-01-01,2017-12-01
2300902,KUGLUKTUK ,-115.1438888888889,67.81666666666666,23,pr,990,1931-01-01,2014-12-01
1128553,VERNON BELLA VISTA,-119.30886111111111,50.264361111111114,427,pr,1359,1900-01-01,2015-06-01
8400798,BURGEO,-57.61666666666667,47.61666666666667,11,pr,678,1939-01-01,1995-07-01
1077500,SMITHERS ,-127.18277777777777,54.82472222222222,522,pr,1143,1922-01-01,2017-12-01
7036063,POINTE AU CHENE,-74.8,45.65,51,pr,961,1919-01-01,2009-06-01
1130771,BEAVERDELL NORTH,-119.047,49.47833333333333,838,pr,935,1926-01-01,2006-09-01
705C2G9,ILES DE LA MADELEINE ,-61.78333333333333,47.416666666666664,11,pr,820,1934-01-01,2002-11-01
6101874,CORNWALL,-74.7489,45.01557833333333,64,pr,785,1951-01-01,2017-12-01
7066685,ROBERVAL ,-72.26666666666667,48.516666666666666,179,pr,1168,1914-01-01,2014-03-01
8403800,STEPHENVILLE ,-58.55,48.53333333333333,26,pr,831,1935-01-01,2014-10-01
50220M0,NINETTE,-99.65,49.416666666666664,419,pr,893,1916-01-01,1996-05-01
3032800,GLEICHEN,-113.05,50.88333333333333,905,pr,1170,1903-01-01,2006-03-01
2401030,DEWAR LAKES,-71.16666666666667,68.65,527,pr,418,1958-01-01,1993-03-01
1018620,VICTORIA ,-123.42583333333333,48.647225,19,pr,1373,1899-01-01,2013-07-01
7080600,BELLETERRE,-78.7,47.38333333333333,322,pr,573,1952-01-01,2004-04-01
7028441,THETFORD MINES,-71.35,46.1,381,pr,1082,1922-01-01,2016-07-01
3072539,FAIRVIEW THREE FOX FARM,-118.53333333333333,56.083333333333336,604,pr,788,1932-01-01,1999-12-01
6034075,KENORA ,-94.36527861111111,49.790279166666664,406,pr,1318,1900-01-01,2013-02-01
5010640,CYPRESS RIVER,-99.08333333333333,49.55,374,pr,751,1948-01-01,2012-03-01
2100300,CARMACKS,-136.3,62.1,525,pr,500,1964-01-01,2008-02-01
8401501,DEER LAKE ,-57.4,49.21666666666667,22,pr,924,1933-01-01,2012-03-01
8101000,MIRAMICHI ,-65.46778888888889,47.00946944444444,33,pr,1590,1873-01-01,2005-08-01
1086082,PEMBERTON AIRPORT,-122.73408888888889,50.30564611111111,204,pr,850,1913-01-01,1991-06-01
3015523,ROCKY MTN HOUSE,-114.91222305555556,52.421390555555554,988,pr,1051,1917-01-01,2007-11-01
1153282,GRASMERE,-115.06666666666666,49.083333333333336,869,pr,1071,1896-01-01,1993-11-01
6163171,HALIBURTON,-78.531115,45.032248333333335,330,pr,1444,1883-01-01,2017-12-01
1133270,GRAND FORKS,-118.46566666666666,49.02616666666667,532,pr,1158,1910-01-01,2008-03-01
5062922,THOMPSON ,-97.8625,55.803333333333335,222,pr,569,1967-01-01,2014-11-01
8502591,MARY'S HARBOUR ,-55.83361111111111,52.30361111111111,12,pr,1026,1881-01-01,1998-01-01
1013754,JORDAN RIVER DIVERSION,-124.0,48.5,393,idf,444,1964-01-01,2003-12-31
1013755,JORDAN RIVER GENERATING,-124.05,48.42,4,idf,348,1973-01-01,2002-12-31
1015628,NORTH COWICHAN,-123.72,48.82,45,idf,360,1982-01-01,2017-12-31
1017099,SATURNA CAPMON CS,-123.13,48.78,178,idf,360,1989-01-01,2021-12-31
1018598,VICTORIA UNIVERSITY CS,-123.3,48.46,60,idf,336,1965-01-01,2021-12-31
1018611,VICTORIA GONZALES CS,-123.32,48.41,61,idf,828,1925-01-01,2021-12-31
1018621,VICTORIA INTL A,-123.43,48.65,19,idf,600,1965-01-01,2017-12-31
1018642,VICTORIA MARINE,-123.75,48.37,31,idf,300,1967-01-01,1991-12-31
1021261,CAMPBELL RIVER A,-125.27,49.95,108,idf,252,1970-01-01,2002-12-31
1021830,COMOX A,-124.9,49.72,25,idf,480,1963-01-01,2006-12-31
1021990,COURTENAY PUNTLEDGE BCHP,-125.03,49.68,24,idf,384,1964-01-01,1995-12-31
1025369,NANAIMO A,-123.87,49.05,28,idf,384,1985-01-01,2017-12-31
10253G0,NANAIMO CITY YARD,-123.99,49.2,114,idf,300,1980-01-01,2007-12-31
1025C70,NANAIMO DEPARTURE BAY,-123.95,49.22,7,idf,240,1971-01-01,1991-12-31
1026270,PORT HARDY A,-127.37,50.68,21,idf,348,1973-01-01,2002-12-31
1030426,AMPHITRITE POINT,-125.54,48.92,26,idf,240,1980-01-01,1999-12-31
1032731,ESTEVAN POINT CS,-126.54,49.38,5,idf,312,1969-01-01,2021-12-31
1036B06,PORT ALBERNI (AUT),-124.93,49.32,76,idf,384,1969-01-01,2021-12-31
1038205,TOFINO A,-125.77,49.08,24,idf,540,1970-01-01,2017-12-31
1041710,CLOWHOM FALLS,-123.53,49.72,22,idf,252,1969-01-01,1990-12-31
1046332,PORT MELLON,-123.5,49.53,125,idf,240,1964-01-01,2021-12-31
1046392,POWELL RIVER,-124.5,49.83,125,idf,456,1982-01-01,2021-12-31
1047172,SECHELT AUT,-123.72,49.46,86,idf,348,1983-01-01,2021-12-31
1054503,LANGARA ISLAND RCS,-133.06,54.26,46,idf,456,1982-01-01,2020-12-31
1057050,SANDSPIT A,-131.81,53.25,6,idf,396,1972-01-01,2004-12-31
1060841,BELLA COOLA A,-126.6,52.39,35,idf,360,1983-01-01,2015-12-31
1066481,PRINCE RUPERT A,-130.44,54.29,35,idf,420,1970-01-01,2004-12-31
1067742,STEWART A,-129.99,55.94,7,idf,384,1978-01-01,2015-12-31
1068130,TERRACE A,-128.58,54.47,217,idf,336,1969-01-01,2002-12-31
1068131,TERRACE PCC,-128.62,54.5,67,idf,564,1968-01-01,2017-12-31
1077500,SMITHERS A,-127.18,54.82,521,idf,372,1971-01-01,2002-12-31
1091169,BURNS LAKE,-125.77,54.23,704,idf,252,1969-01-01,1990-12-31
1092970,FORT ST JAMES,-124.29,54.46,691,idf,360,1976-01-01,2010-12-31
1096453,PRINCE GEORGE AIRPORT AUTO,-122.67,53.89,680,idf,636,1960-01-01,2021-12-31
1100030,ABBOTSFORD A,-122.36,49.03,59,idf,288,1977-01-01,2001-12-31
1100119,AGASSIZ RCS,-121.76,49.24,19,idf,408,1955-01-01,2021-12-31
1100875,WHISTLER - NESTERS,-122.95,50.13,659,idf,384,1969-01-01,2021-12-31
1102415,DELTA BURNS BOG,-123.0,49.13,3,idf,252,1963-01-01,2021-12-31
1103328,HANEY MICROWAVE,-122.52,49.2,320,idf,252,1964-01-01,1984-12-31
1103332,HANEY UBC RF ADMIN,-122.57,49.26,147,idf,624,1963-01-01,2016-12-31
1105192,MISSION WEST ABBEY,-122.27,49.15,197,idf,648,1963-01-01,2017-12-31
1106178,PITT MEADOWS CS,-122.69,49.21,5,idf,252,1974-01-01,2021-12-31
1106180,PITT POLDER,-122.63,49.27,5,idf,480,1965-01-01,2007-12-31
1106CL2,PORT MOODY GLENAYRE,-122.88,49.28,129,idf,348,1971-01-01,2001-12-31
1107873,SURREY KWANTLEN PARK,-122.86,49.19,78,idf,444,1962-01-01,1999-12-31
1108380,VANCOUVER SEA ISLAND CCG,-123.19,49.18,2,idf,804,1953-01-01,2021-12-31
1108446,VANCOUVER HARBOUR CS,-123.12,49.3,2,idf,300,1970-01-01,2021-12-31
1108453,VANCOUVER KITSILANO,-123.17,49.27,12,idf,360,1915-01-01,1944-12-31
1108487,VANCOUVER UBC,-123.25,49.25,76,idf,396,1958-01-01,1990-12-31
1108910,WHITE ROCK CAMPBELL SCIENTIFIC,-122.78,49.02,13,idf,408,1964-01-01,2021-12-31
1113543,HOPE AIRPORT,-121.49,49.37,39,idf,504,1964-01-01,2021-12-31
1114619,LILLOOET,-121.93,50.68,239,idf,396,1973-01-01,2021-12-31
1114741,LYTTON,-121.58,50.23,229,idf,252,1970-01-01,1990-12-31
1123970,KELOWNA A,-119.38,49.96,429,idf,408,1969-01-01,2004-12-31
1125766,OLIVER STP,-119.54,49.18,297,idf,384,1973-01-01,2007-12-31
1126150,PENTICTON A,-119.6,49.46,344,idf,540,1953-01-01,2002-12-31
1126510,PRINCETON A,-120.51,49.47,701,idf,396,1979-01-01,2017-12-31
1128551,VERNON,-119.28,50.23,556,idf,264,1972-01-01,1993-12-31
112G8L1,SUMMERLAND CS,-119.65,49.56,454,idf,432,1955-01-01,1994-12-31
1141455,CASTLEGAR A,-117.63,49.3,495,idf,252,1973-01-01,1995-12-31
1141457,CASTLEGAR BCHPA DAM,-117.77,49.34,435,idf,336,1969-01-01,1998-12-31
1142574,DUNCAN LAKE DAM,-116.97,50.24,548,idf,456,1969-01-01,2013-12-31
1142820,FAUQUIER,-118.07,49.87,490,idf,348,1974-01-01,2005-12-31
1148211,TRAIL BIRCHBANK,-117.73,49.2,594,idf,384,1965-01-01,1997-12-31
114B1F0,CRESTON CAMPBELL SCIENTIFIC,-116.5,49.08,640,idf,384,1980-01-01,2021-12-31
1152102,CRANBROOK A,-115.78,49.61,940,idf,384,1969-01-01,2002-12-31
1154203,KIMBERLEY PCC,-115.96,49.63,889,idf,408,1976-01-01,2010-12-31
1157631,SPARWOOD CS,-114.88,49.74,1136,idf,456,1980-01-01,2021-12-31
1160H99,BLUE RIVER CS,-119.29,52.13,682,idf,600,1970-01-01,2021-12-31
1163842,KAMLOOPS AUT,-120.44,50.7,345,idf,612,1965-01-01,2021-12-31
1166R45,SALMON ARM A,-119.23,50.69,527,idf,528,1964-01-01,2016-12-31
1173220,GOLDEN AIRPORT,-116.98,51.3,785,idf,504,1973-01-01,2021-12-31
1176755,REVELSTOKE AIRPORT AUTO,-118.18,50.96,444,idf,348,1970-01-01,2021-12-31
1181508,CHETWYND A,-121.63,55.69,609,idf,372,1970-01-01,2016-12-31
1182285,DAWSON CREEK A,-120.18,55.74,654,idf,312,1969-01-01,2002-12-31
1183000,FORT ST JOHN A,-120.74,56.24,694,idf,288,1973-01-01,2002-12-31
1184793,MACKENZIE AIRPORT AUTO,-123.14,55.31,694,idf,384,1971-01-01,2021-12-31
1192940,FORT NELSON A,-122.6,58.84,381,idf,408,1966-01-01,2002-12-31
1195250,MUNCHO LAKE,-125.77,58.93,836,idf,324,1983-01-01,2013-12-31
119BLM0,DEASE LAKE (AUT),-130.03,58.43,800,idf,396,1973-01-01,2021-12-31
1200560,ATLIN,-133.7,59.57,673,idf,276,1977-01-01,2014-12-31
2100184,BURWASH AIRPORT AUTO,-139.02,61.37,807,idf,240,1975-01-01,2021-12-31
2100301,CARMACKS CS,-136.19,62.12,542,idf,240,1964-01-01,2021-12-31
2100630,HAINES JUNCTION,-137.58,60.77,595,idf,252,1964-01-01,2021-12-31
2100700,MAYO A,-135.87,63.62,503,idf,312,1979-01-01,2016-12-31
2100880,PELLY RANCH,-137.31,62.83,445,idf,492,1966-01-01,2014-12-31
2100LRP,DAWSON,-139.13,64.06,370,idf,384,1976-01-01,2021-12-31
2101102,TESLIN (AUT),-132.73,60.17,705,idf,480,1967-01-01,2021-12-31
2101204,WATSON LAKE (AUT),-128.83,60.12,683,idf,372,1970-01-01,2021-12-31
2101310,WHITEHORSE AUTO,-135.1,60.73,707,idf,588,1960-01-01,2021-12-31
2201903,FORT RELIANCE (AUT),-109.17,62.71,167,idf,324,1972-01-01,2021-12-31
2202102,FORT SIMPSON CLIMATE,-121.24,61.76,168,idf,552,1969-01-01,2021-12-31
2202401,HAY RIVER A,-115.78,60.84,164,idf,468,1971-01-01,2015-12-31
2202578,INUVIK CLIMATE,-133.52,68.32,103,idf,432,1972-01-01,2021-12-31
2202810,NORMAN WELLS CLIMATE,-126.75,65.29,93,idf,504,1974-01-01,2021-12-31
2204100,YELLOWKNIFE A,-114.44,62.46,205,idf,396,1963-01-01,1996-12-31
2300501,BAKER LAKE CLIMATE,-96.0,64.32,50,idf,396,1987-01-01,2021-12-31
2400602,CAMBRIDGE BAY GSN,-105.14,69.11,18,idf,432,1969-01-01,2021-12-31
2400636,KINNGAIT,-76.53,64.23,50,idf,372,1971-01-01,2021-12-31
2402353,SANIRAJAK,-81.24,68.78,8,idf,312,1987-01-01,2021-12-31
2402592,IQALUIT CLIMATE,-68.54,63.75,33,idf,372,1982-01-01,2021-12-31
2403204,POND INLET CLIMATE,-77.96,72.69,64,idf,336,1975-01-01,2021-12-31
2503648,SACHS HARBOUR CLIMATE,-125.25,71.99,87,idf,240,1978-01-01,2021-12-31
3011240,CAMROSE,-112.82,53.05,739,idf,300,1982-01-01,2021-12-31
3011887,CORONATION CLIMATE,-111.45,52.07,791,idf,372,1976-01-01,2021-12-31
3012206,EDMONTON INTERNATIONAL CS,-113.61,53.31,715,idf,672,1961-01-01,2021-12-31
3012209,EDMONTON BLATCHFORD,-113.52,53.57,671,idf,900,1914-01-01,2021-12-31
3012210,EDMONTON NAMAO A,-113.47,53.67,687,idf,348,1965-01-01,1994-12-31
3015523,ROCKY MTN HOUSE (AUT),-114.91,52.42,988,idf,492,1964-01-01,2021-12-31
301A001,EDMONTON STONY PLAIN CS,-114.11,53.55,766,idf,252,1989-01-01,2021-12-31
3023722,LACOMBE CDA 2,-113.76,52.45,860,idf,456,1970-01-01,2021-12-31
3025481,RED DEER REGIONAL A,-113.89,52.18,904,idf,588,1959-01-01,2014-12-31
3030QLP,BROOKS,-111.85,50.56,747,idf,432,1965-01-01,2021-12-31
3031094,CALGARY INT'L CS,-114.0,51.11,1081,idf,804,1947-01-01,2021-12-31
3033890,LETHBRIDGE CDA,-112.77,49.7,910,idf,612,1960-01-01,2021-12-31
3034485,MEDICINE HAT RCS,-110.72,50.03,715,idf,552,1971-01-01,2021-12-31
3035208,PINCHER CREEK CLIMATE,-114.0,49.52,1190,idf,384,1965-01-01,2021-12-31
3036682,VAUXHALL CDA CS,-112.13,50.05,779,idf,576,1956-01-01,2021-12-31
3044923,ONEFOUR CDA,-110.47,49.12,935,idf,396,1964-01-01,2021-12-31
3053520,JASPER,-118.07,52.88,1062,idf,372,1963-01-01,1994-12-31
3062246,EDSON CLIMATE,-116.45,53.58,927,idf,420,1970-01-01,2020-12-31
3062696,FORT MCMURRAY CS,-111.21,56.65,368,idf,516,1966-01-01,2021-12-31
3064528,MILDRED LAKE,-111.56,57.04,310,idf,288,1974-01-01,2021-12-31
3065997,SLAVE LAKE RCS,-114.78,55.29,582,idf,348,1973-01-01,2021-12-31
3067372,WHITECOURT A,-115.79,54.14,782,idf,348,1982-01-01,2012-12-31
3070600,BEAVERLODGE RCS,-119.4,55.2,745,idf,576,1961-01-01,2021-12-31
3072659,FORT CHIPEWYAN RCS,-111.12,58.77,238,idf,336,1969-01-01,2021-12-31
3072723,FORT VERMILION,-116.04,58.38,289,idf,252,1962-01-01,2021-12-31
3072920,GRANDE PRAIRIE A,-118.89,55.18,669,idf,264,1968-01-01,1993-12-31
3073146,HIGH LEVEL A,-117.16,58.62,338,idf,384,1971-01-01,2011-12-31
3075040,PEACE RIVER A,-117.45,56.23,570,idf,468,1966-01-01,2011-12-31
3077246,WATINO,-117.63,55.72,393,idf,240,1963-01-01,1993-12-31
3081680,COLD LAKE A,-110.28,54.42,541,idf,588,1966-01-01,2017-12-31
4010879,BROADVIEW,-102.57,50.37,599,idf,552,1965-01-01,2021-12-31
4012164,DAVIN 5,-104.17,50.37,655,idf,360,1952-01-01,1993-12-31
4012410,ESTEVAN,-102.97,49.22,580,idf,684,1964-01-01,2021-12-31
4013480,INDIAN HEAD CDA,-103.65,50.55,579,idf,588,1962-01-01,2021-12-31
4013490,INDIAN HEAD PFRA,-103.68,50.5,604,idf,396,1961-01-01,1995-12-31
4015322,MOOSE JAW CS,-105.54,50.33,577,idf,648,1960-01-01,2021-12-31
4015680,ORMISTON,-105.37,49.72,685,idf,312,1969-01-01,1996-12-31
4016699,REGINA RCS,-104.67,50.43,577,idf,792,1941-01-01,2021-12-31
4019073,YORKTON,-102.46,51.26,498,idf,480,1970-01-01,2021-12-31
40190LN,WYNYARD (AUT),-104.2,51.77,560,idf,624,1965-01-01,2021-12-31
401HP5R,WEYBURN,-103.8,49.7,588,idf,564,1962-01-01,2021-12-31
4028040,SWIFT CURRENT A,-107.68,50.3,816,idf,300,1970-01-01,1994-12-31
4028060,SWIFT CURRENT CDA,-107.73,50.27,825,idf,624,1959-01-01,2021-12-31
4036844,ROCKGLEN (AUT),-105.98,49.17,917,idf,276,1971-01-01,2021-12-31
4043901,KINDERSLEY A,-109.18,51.52,693,idf,600,1966-01-01,2016-12-31
4045607,NORTH BATTLEFORD RCS,-108.26,52.77,548,idf,516,1975-01-01,2021-12-31
4047240,SCOTT CDA,-108.83,52.36,659,idf,576,1961-01-01,2021-12-31
4055079,MELFORT,-104.6,52.82,490,idf,384,1974-01-01,2021-12-31
4055736,OUTLOOK PFRA,-107.05,51.48,541,idf,504,1963-01-01,2021-12-31
4056240,PRINCE ALBERT A,-105.67,53.22,428,idf,456,1960-01-01,2002-12-31
4057165,SASKATOON RCS,-106.72,52.17,504,idf,528,1960-01-01,2021-12-31
4057200,SASKATOON U OF S,-106.63,52.13,515,idf,396,1926-01-01,1959-12-31
4060983,BUFFALO NARROWS (AUT),-108.42,55.84,440,idf,540,1968-01-01,2021-12-31
4061620,COLLINS BAY SK,-103.68,58.23,412,idf,348,1973-01-01,2021-12-31
4061861,CREE LAKE,-107.13,57.35,494,idf,288,1970-01-01,1993-12-31
4063605,ISLAND FALLS (AUT),-102.35,55.53,297,idf,540,1966-01-01,2021-12-31
4064149,LA RONGE RCS,-105.27,55.15,378,idf,588,1966-01-01,2021-12-31
4067PR5,STONY RAPIDS A,-105.83,59.25,245,idf,264,1986-01-01,2008-12-31
4068559,WASKESIU LAKE,-106.07,53.92,569,idf,312,1977-01-01,2021-12-31
406N0NM,MEADOW LAKE,-108.52,54.13,481,idf,468,1979-01-01,2021-12-31
406QLD0,URANIUM CITY (AUT),-108.48,59.57,318,idf,396,1965-01-01,2021-12-31
407N51G,NIPAWIN,-104.0,53.33,371,idf,456,1974-01-01,2021-12-31
4083324,HUDSON BAY(AUT),-102.32,52.82,358,idf,492,1966-01-01,2021-12-31
5010485,BRANDON CDA,-99.98,49.87,362,idf,288,1960-01-01,1985-12-31
5010490,BRANDON RCS,-99.95,49.9,409,idf,492,1970-01-01,2021-12-31
5012324,PORTAGE SOUTHPORT,-98.28,49.9,272,idf,528,1964-01-01,2021-12-31
5020725,DEERWOOD RCS,-98.32,49.4,341,idf,480,1964-01-01,2021-12-31
5021054,GLENLEA,-97.12,49.65,234,idf,384,1967-01-01,2000-12-31
5021849,MORDEN CDA CS,-98.08,49.19,297,idf,408,1977-01-01,2021-12-31
5022125,PILOT MOUND (AUT),-98.9,49.19,470,idf,444,1965-01-01,2021-12-31
5023262,WINNIPEG THE FORKS,-97.13,49.89,230,idf,408,1961-01-01,2021-12-31
502S001,WINNIPEG A CS,-97.25,49.92,238,idf,744,1944-01-01,2021-12-31
5030203,BERENS RIVER CS,-97.02,52.36,221,idf,276,1985-01-01,2021-12-31
5031042,GIMLI CLIMATE,-97.05,50.63,230,idf,480,1964-01-01,2021-12-31
5031320,INDIAN BAY,-95.2,49.62,326,idf,348,1961-01-01,2002-12-31
5031A10,GRAND RAPIDS (AUT),-99.27,53.19,222,idf,300,1966-01-01,2020-12-31
5040681,DAUPHIN CS,-100.06,51.1,304,idf,564,1954-01-01,2021-12-31
5043158,MCCREARY,-99.53,50.71,351,idf,264,1989-01-01,2021-12-31
5050919,FLIN FLON,-101.68,54.68,303,idf,552,1970-01-01,2021-12-31
5052890,THE PAS CLIMATE,-101.1,53.97,274,idf,552,1971-01-01,2021-12-31
5060608,CHURCHILL CLIMATE,-94.07,58.73,28,idf,588,1963-01-01,2021-12-31
5060999,GILLAM,-94.7,56.36,145,idf,492,1972-01-01,2020-12-31
5061376,ISLAND LAKE A,-94.65,53.85,235,idf,432,1971-01-01,2013-12-31
5061649,LYNN LAKE RCS,-101.07,56.85,354,idf,540,1969-01-01,2021-12-31
5062921,THOMPSON A,-97.86,55.8,224,idf,516,1971-01-01,2017-12-31
506B0M7,NORWAY HOUSE FORESTRY,-97.8,54.0,217,idf,264,1963-01-01,1991-12-31
6010738,BIG TROUT LAKE,-89.87,53.83,224,idf,300,1967-01-01,1992-12-31
6012199,EAR FALLS (AUT),-93.22,50.63,362,idf,732,1952-01-01,2021-12-31
6014353,LANSDOWNE HOUSE (AUT),-87.94,52.2,253,idf,360,1971-01-01,2021-12-31
6016525,PICKLE LAKE (AUT),-90.22,51.45,390,idf,660,1953-01-01,2021-12-31
6016975,RED LAKE A,-93.79,51.07,385,idf,324,1978-01-01,2012-12-31
6020LPQ,ATIKOKAN (AUT),-91.63,48.76,389,idf,444,1967-01-01,2021-12-31
6034073,KENORA RCS,-94.38,49.79,412,idf,588,1966-01-01,2021-12-31
6036907,RAWSON LAKE (AUT),-93.73,49.66,435,idf,384,1971-01-01,2020-12-31
6037775,SIOUX LOOKOUT A,-91.9,50.12,383,idf,552,1963-01-01,2017-12-31
6041221,CARIBOU ISLAND,-85.83,47.33,186,idf,264,1966-01-01,1988-12-31
6042716,GERALDTON A,-86.93,49.78,348,idf,648,1952-01-01,2016-12-31
6046770,PUKASKWA NATL PARK,-86.3,48.6,192,idf,252,1983-01-01,2007-12-31
6047810,SLATE ISLAND,-87.0,48.62,185,idf,240,1967-01-01,1988-12-31
6048268,THUNDER BAY CS,-89.33,48.37,199,idf,696,1952-01-01,2021-12-31
6055210,MISSISSAGI ONT HYDRO,-83.38,46.43,225,idf,264,1971-01-01,1996-12-31
6057592,SAULT STE MARIE A,-84.51,46.48,192,idf,588,1962-01-01,2012-12-31
6059408,WAWA (AUT),-84.78,47.97,287,idf,348,1980-01-01,2014-12-31
6059475,WHITE RIVER,-85.28,48.6,378,idf,252,1953-01-01,1975-12-31
6061361,CHAPLEAU A,-83.35,47.82,448,idf,348,1971-01-01,2014-12-31
6068145,SUDBURY CLIMATE,-80.8,46.63,348,idf,576,1971-01-01,2021-12-31
6072230,EARLTON CLIMATE,-79.85,47.7,243,idf,312,1983-01-01,2021-12-31
6073980,KAPUSKASING CDA ON,-82.44,49.41,218,idf,612,1966-01-01,2021-12-31
6074211,KIRKLAND LAKE CS,-80.0,48.15,324,idf,468,1980-01-01,2021-12-31
6075435,MOOSONEE RCS,-80.62,51.29,9,idf,552,1968-01-01,2021-12-31
6076540,PINARD,-81.6,49.85,231,idf,288,1951-01-01,1981-12-31
6078282,TIMMINS CLIMATE,-81.39,48.56,294,idf,732,1952-01-01,2021-12-31
6085700,NORTH BAY A,-79.42,46.36,370,idf,552,1964-01-01,2016-12-31
6100971,BROCKVILLE PCC,-75.67,44.6,96,idf,516,1967-01-01,2017-12-31
6101820,COMBERMERE,-77.62,45.37,286,idf,240,1954-01-01,1977-12-31
6101874,CORNWALL,-74.75,45.02,64,idf,264,1991-01-01,2015-12-31
6101901,CORNWALL ONT HYDRO,-74.8,45.03,76,idf,396,1957-01-01,1992-12-31
6104027,KEMPTVILLE CS,-75.63,45.0,99,idf,576,1970-01-01,2021-12-31
6104142,KINGSTON CLIMATE,-76.6,44.22,93,idf,372,1982-01-01,2021-12-31
6104175,KINGSTON PUMPING STATION,-76.48,44.24,76,idf,756,1914-01-01,2007-12-31
6105978,OTTAWA CDA RCS,-75.72,45.38,79,idf,744,1905-01-01,2021-12-31
6106000,OTTAWA MACDONALD-CARTIER INT'L A,-75.67,45.32,114,idf,552,1967-01-01,2016-12-31
6106400,PETAWAWA NAT FORESTRY,-77.43,45.98,183,idf,396,1961-01-01,1994-12-31
6107836,SMITHS FALLS TS,-76.0,44.88,114,idf,252,1964-01-01,1989-12-31
6110557,BARRIE WPCC,-79.69,44.38,221,idf,324,1979-01-01,2008-12-31
6110617,BEAUSOLEIL,-79.87,44.85,183,idf,288,1977-01-01,2007-12-31
6111792,COLLINGWOOD,-80.22,44.5,179,idf,324,1973-01-01,2021-12-31
6115811,ORILLIA BRAIN,-79.44,44.6,250,idf,420,1965-01-01,2004-12-31
6116132,OWEN SOUND MOE,-80.93,44.58,178,idf,444,1965-01-01,2006-12-31
6119500,WIARTON A,-81.11,44.75,222,idf,480,1973-01-01,2015-12-31
